{
  "protocolSection": {
    "identificationModule": {
      "nctId": "NCT04437511",
      "orgStudyIdInfo": {
        "id": "17737"
      },
      "secondaryIdInfos": [
        {
          "id": "I5T-MC-AACI",
          "type": "OTHER",
          "domain": "Eli Lilly and Company"
        },
        {
          "id": "2020-000077-25",
          "type": "EUDRACT_NUMBER"
        }
      ],
      "organization": {
        "fullName": "Eli Lilly and Company",
        "class": "INDUSTRY"
      },
      "briefTitle": "A Study of Donanemab (LY3002813) in Participants With Early Alzheimer's Disease (TRAILBLAZER-ALZ 2)",
      "officialTitle": "Assessment of Safety, Tolerability, and Efficacy of Donanemab in Early Symptomatic Alzheimer's Disease"
    },
    "statusModule": {
      "statusVerifiedDate": "2025-08",
      "overallStatus": "ACTIVE_NOT_RECRUITING",
      "expandedAccessInfo": {
        "hasExpandedAccess": false
      },
      "startDateStruct": {
        "date": "2020-06-19",
        "type": "ACTUAL"
      },
      "primaryCompletionDateStruct": {
        "date": "2023-04-14",
        "type": "ACTUAL"
      },
      "completionDateStruct": {
        "date": "2028-11",
        "type": "ESTIMATED"
      },
      "studyFirstSubmitDate": "2020-06-17",
      "studyFirstSubmitQcDate": "2020-06-17",
      "studyFirstPostDateStruct": {
        "date": "2020-06-18",
        "type": "ACTUAL"
      },
      "resultsFirstSubmitDate": "2024-04-10",
      "resultsFirstSubmitQcDate": "2024-05-14",
      "resultsFirstPostDateStruct": {
        "date": "2024-05-20",
        "type": "ACTUAL"
      },
      "lastUpdateSubmitDate": "2025-08-11",
      "lastUpdatePostDateStruct": {
        "date": "2025-08-29",
        "type": "ESTIMATED"
      }
    },
    "sponsorCollaboratorsModule": {
      "responsibleParty": {
        "type": "SPONSOR"
      },
      "leadSponsor": {
        "name": "Eli Lilly and Company",
        "class": "INDUSTRY"
      }
    },
    "oversightModule": {
      "oversightHasDmc": true,
      "isFdaRegulatedDrug": true,
      "isFdaRegulatedDevice": false
    },
    "descriptionModule": {
      "briefSummary": "The reason for this study is to see how safe and effective the study drug donanemab is in participants with early Alzheimer's disease.\n\nAdditional participants will be enrolled to an addendum safety cohort. The participants will be administered open-label donanemab.\n\nTrial participants who were dosed with donanemab in the main study will be enrolled to a 3-year follow up addendum. No study drug will be administered during this follow up.",
      "detailedDescription": "TRAILBLAZER-ALZ 2 is a Phase 3, double-blind, placebo-controlled study to evaluate the safety and efficacy of N3pG antibody (donanemab) in participants with early symptomatic AD (prodromal AD and mild dementia due to AD) with the presence of brain amyloid and tau pathology.\n\nFollowing the double-blind 76-week main study period, a double-blind 78-week long-term extension period is added to further evaluate donanemab efficacy and safety over time. Participants from the addendum safety cohort are not eligible for the extension period.\n\nParticipants previously dosed with donanemab in the main study will be monitored to track re-accumulation of amyloid plaque for 3 years."
    },
    "conditionsModule": {
      "conditions": [
        "Alzheimer Disease"
      ],
      "keywords": [
        "Alzheimer's",
        "Dementia",
        "Cognitive Impairment",
        "Amyloid Plaque"
      ]
    },
    "designModule": {
      "studyType": "INTERVENTIONAL",
      "phases": [
        "PHASE3"
      ],
      "designInfo": {
        "allocation": "RANDOMIZED",
        "interventionModel": "PARALLEL",
        "primaryPurpose": "TREATMENT",
        "maskingInfo": {
          "masking": "DOUBLE",
          "whoMasked": [
            "PARTICIPANT",
            "INVESTIGATOR"
          ]
        }
      },
      "enrollmentInfo": {
        "count": 1736,
        "type": "ACTUAL"
      }
    },
    "armsInterventionsModule": {
      "armGroups": [
        {
          "label": "Donanemab",
          "type": "EXPERIMENTAL",
          "description": "Participants received 700 milligram (mg) Donanemab every 4 weeks (Q4W) x 3 doses, then 1400 mg Q4W given intravenously (IV) for up to 72 weeks",
          "interventionNames": [
            "Drug: Donanemab"
          ]
        },
        {
          "label": "Placebo",
          "type": "PLACEBO_COMPARATOR",
          "description": "Participants received placebo given IV.",
          "interventionNames": [
            "Drug: Placebo"
          ]
        }
      ],
      "interventions": [
        {
          "type": "DRUG",
          "name": "Donanemab",
          "description": "Given IV",
          "armGroupLabels": [
            "Donanemab"
          ],
          "otherNames": [
            "LY3002813"
          ]
        },
        {
          "type": "DRUG",
          "name": "Placebo",
          "description": "Given IV",
          "armGroupLabels": [
            "Placebo"
          ]
        }
      ]
    },
    "outcomesModule": {
      "primaryOutcomes": [
        {
          "measure": "Change From Baseline on the Integrated Alzheimer's Disease Rating Scale (iADRS) (Overall Population)",
          "description": "Integrated Alzheimer's Disease Rating Scale is used to assess whether donanemab slows down the clinical decline associated with AD compared with placebo. iADRS is an integrated assessment of cognition and daily function comprised of items from the ADAS-Cog13 and the Alzheimer's disease cooperative study-instrumental activities of daily living scale (ADCS-iADL). The scale ranges from 0 to 144, where lower scores indicate worse performance and higher score indicates better performance. Least Squares (LS) Mean value was adjusted for basis expansion terms (two terms), basis expansion term-by-treatment interaction, and covariates for age at baseline, pooled investigator, baseline tau level, and baseline acetylcholinesterase inhibitor (AchI)/Memantine use.",
          "timeFrame": "Baseline, Week 76"
        },
        {
          "measure": "Change From Baseline on the Integrated Alzheimer's Disease Rating Scale (iADRS) (Intermediate (Low-medium) Tau Population)",
          "description": "Integrated Alzheimer's Disease Rating Scale is used to assess whether donanemab slows down the clinical decline associated with AD compared with placebo. iADRS is an integrated assessment of cognition and daily function comprised of items from the Alzheimer's disease assessment scale-cognitive subscale (ADAS-Cog13) and the Alzheimer's disease cooperative study-instrumental activities of daily living scale (ADCS-iADL). The scale ranges from 0 to 144, where lower scores indicate worse performance and higher score indicates better performance. LS Mean value was adjusted for basis expansion terms (two terms), basis expansion term-by-treatment interaction, and covariates for age at baseline, pooled investigator, and baseline AchI/Memantine use.",
          "timeFrame": "Baseline, Week 76"
        }
      ],
      "secondaryOutcomes": [
        {
          "measure": "Change From Baseline on the Mini Mental State Examination (MMSE) Score (Overall Population)",
          "description": "MMSE is an instrument used to assess cognitive function (orientation, memory, attention, ability to name objects, follow verbal/written commands, write a sentence, and copy figures). Total score ranges from 0 to 30; lower score indicates greater disease severity. LS Mean value was adjusted for basis expansion terms (two terms), basis expansion term-by-treatment interaction, and covariates for age at baseline, pooled investigator, baseline tau level, and baseline AchI/Memantine use.",
          "timeFrame": "Baseline, Week 76"
        },
        {
          "measure": "Change From Baseline on the Mini Mental State Examination (MMSE) Score (Intermediate (Low-medium) Tau Population)",
          "description": "MMSE is an instrument used to assess cognitive function (orientation, memory, attention, ability to name objects, follow verbal/written commands, write a sentence, and copy figures). Total score ranges from 0 to 30; lower score indicates greater disease severity. LS Mean value was adjusted for basis expansion terms (two terms), basis expansion term-by-treatment interaction, and covariates for age at baseline, pooled investigator, and baseline AchI/Memantine use.",
          "timeFrame": "Baseline, Week 76"
        },
        {
          "measure": "Change From Baseline on the Alzheimer's Disease Assessment Scale - Cognitive Subscale (ADAS-Cog13) (Overall Population)",
          "description": "The ADAS-Cog13 is a rater administered instrument that was designed to assess the severity of the dysfunction in the cognitive and noncognitive behaviors characteristic of persons with AD. The cognitive subscale of the ADAS-Cog13 consists of 13 items assessing areas of cognitive function most typically impaired in AD: orientation, verbal memory, language, praxis, delayed free recall, digit cancellation. The ADAS-Cog13 scale ranges from 0 to 85. Higher scores indicate greater disease severity. LS Mean value was adjusted for basis expansion terms (two terms), basis expansion term-by-treatment interaction, and covariates for age at baseline, pooled investigator, baseline tau level, and baseline AchI/Memantine use.",
          "timeFrame": "Baseline, Week 76"
        },
        {
          "measure": "Change From Baseline on the Alzheimer's Disease Assessment Scale - Cognitive Subscale (ADAS-Cog13) (Intermediate (Low-medium) Tau Population)",
          "description": "The ADAS is a rater administered instrument that was designed to assess the severity of the dysfunction in the cognitive and noncognitive behaviors characteristic of persons with AD. The cognitive subscale of the ADAS-cog consists of 13 items assessing areas of cognitive function most typically impaired in AD: orientation, verbal memory, language, praxis, delayed free recall, digit cancellation. The ADAS-Cog13 scale ranges from 0 to 85. Higher scores indicate greater disease severity. LS Mean value was adjusted for basis expansion terms (two terms), basis expansion term-by-treatment interaction, and covariates for age at baseline, pooled investigator, and baseline AchI/Memantine use.",
          "timeFrame": "Baseline, Week 76"
        },
        {
          "measure": "Change From Baseline on the Clinical Dementia Rating Scale-Sum of Boxes (CDR-SB) (Overall Population)",
          "description": "CDR-SB is a semi-structured interview of participants and their caregivers. Participant's cognitive status is rated across 6 domains of functioning, including memory, orientation, judgment/problem solving, community affairs, home/hobbies, and personal care. Severity score assigned for each of 6 domains; Total score (SB) ranges from 0 to 18. Higher scores indicate greater disease severity. LS Mean value was adjusted for treatment, visit, treatment-by-visit interaction, and covariates for baseline score, baseline score-by-visit interaction, age at baseline, baseline tau category, pooled investigator, and baseline AchI/Memantine use.",
          "timeFrame": "Baseline, Week 76"
        },
        {
          "measure": "Change From Baseline on the Clinical Dementia Rating Scale-Sum of Boxes (CDR-SB) (Intermediate (Low-medium) Tau Population)",
          "description": "CDR-SB is a semi-structured interview of participants and their caregivers. Participant's cognitive status is rated across 6 domains of functioning, including memory, orientation, judgment/problem solving, community affairs, home/hobbies, and personal care. Severity score assigned for each of 6 domains; Total score (SB) ranges from 0 to 18. Higher scores indicate greater disease severity. LS Mean value was adjusted for treatment, visit, treatment-by-visit interaction, and covariates for baseline score, baseline score-by-visit interaction, age at baseline, pooled investigator, and baseline AchI/Memantine use.",
          "timeFrame": "Baseline, Week 76"
        },
        {
          "measure": "Change From Baseline on the Alzheimer's Disease Cooperative Study - Instrumental Activities of Daily Living (ADCS-iADL) Score (Overall Population)",
          "description": "The ADCS-ADL is a 23-item inventory developed as a rater-administered questionnaire answered by the participant's caregiver. The ADCS-ADL measures both basic and instrumental activities (instrumental activity items 6a, 7-23) of daily living by participants. The range for the ADCS-iADL is 0-59 with higher scores reflecting better performance. LS Mean value was adjusted for basis expansion terms (two terms), basis expansion term-by-treatment interaction, and covariates for age at baseline, pooled investigator, baseline tau level, and baseline AchI/Memantine use.",
          "timeFrame": "Baseline, Week 76"
        },
        {
          "measure": "Change From Baseline on the Alzheimer's Disease Cooperative Study - Instrumental Activities of Daily Living (ADCS-iADL) Score (Intermediate (Low-medium) Tau Population)",
          "description": "The ADCS-ADL is a 23-item inventory developed as a rater-administered questionnaire answered by the participant's caregiver. The ADCS-ADL measures both basic and instrumental activities (instrumental activity items 6a, 7-23) of daily living by participants. The range for the ADCS-iADL is 0-59 with higher scores reflecting better performance. LS Mean value was adjusted for basis expansion terms (two terms), basis expansion term-by-treatment interaction, and covariates for age at baseline, pooled investigator, and baseline AchI/Memantine use.",
          "timeFrame": "Baseline, Week 76"
        },
        {
          "measure": "Change From Baseline in Brain Amyloid Plaque Deposition as Measured by Amyloid Positron Emission Tomography (PET) Scan",
          "description": "Amyloid PET scans at baseline and at 76 weeks after the first treatment were used to quantitatively estimate change in amyloid plaques. Quantitative amyloid burden was first formalized as the average Standardized Uptake Value Ratio (SUVR) in six predetermined cortical brain regions relative to the cerebellum as a reference region. Larger SUVR reflects the larger cortical amyloid burden relative to cerebellum. SUVR values were further calibrated to a centiloid (CL) scale. The Centiloid scale anchor points are 0 and 100, where 0 represents a high-certainty amyloid negative scan and 100 represents the amount of global amyloid deposition found in a typical AD scan. LS Mean value was adjusted for treatment, visit, treatment-by-visit interaction, and covariates for baseline score, baseline score-by-visit interaction, baseline tau category, and age at baseline.",
          "timeFrame": "Baseline, Week 76"
        },
        {
          "measure": "Change From Baseline in Brain Tau Deposition as Measured by Flortaucipir F18 PET Scan",
          "description": "Flortaucipir PET imaging was used as a quantitative tau biomarker. Tau PET scans at baseline and at 76 weeks after the first treatment were used to quantitatively estimate change in aggregated tau neurofibrillary tangles (NFTs). Quantitative tau burden was formalized using Standardized Uptake Value Ratio (SUVR) in frontal lobe relative to the cerebellum gray as a reference region. Larger SUVR reflects larger tau burden in the frontal lobe relative to cerebellum gray. LS Mean value was adjusted for baseline score, screening tau category, age and treatment (Type III sum of squares).",
          "timeFrame": "Baseline, Week 76"
        },
        {
          "measure": "Change From Baseline in Brain Volume as Measured by Volumetric Magnetic Resonance Imaging (vMRI)",
          "description": "MRI scans at baseline and at 76 weeks after the first treatment were used to quantitatively estimate change in brain volume. Volumetric MRI parameters were measured in bilateral hippocampus, bilateral whole brain, and bilateral ventricles. LS Mean value was adjusted for treatment, visit, treatment-by-visit interaction, and covariates for baseline score, baseline tau category, and age at baseline.",
          "timeFrame": "Baseline, Week 76"
        },
        {
          "measure": "Pharmacokinetics (PK): Average Serum Concentration at Steady State of Donanemab",
          "description": "The average serum concentration at steady state, calculated as Cav = AUCtau/tau, where tau is the dosing interval (4 weeks). AUCtau/tau was assessed at week 12, 16, 24, 36, 52, 64 and Cav for the dosing interval from week 16 to week 20 is reported.",
          "timeFrame": "Week 16 to week 20"
        },
        {
          "measure": "Number or Participants With Anti-Donanemab Antibodies",
          "description": "Number of participants with treatment-emergent positive Anti-Donanemab antibodies was summarized by treatment group.",
          "timeFrame": "Baseline through Week 76"
        }
      ]
    },
    "eligibilityModule": {
      "eligibilityCriteria": "Inclusion Criteria:\n\n* Gradual and progressive change in memory function reported by participants or informants for â‰¥ 6 months\n* MMSE score of 20 to 28 (inclusive) at baseline\n* Meet 18F flortaucipir PET scan (central read) criteria - does not apply to safety cohort\n* Meet 18F florbetapir PET scan (central read) criteria\n* Have a study partner who will provide written informed consent to participate\n\nExclusion Criteria:\n\n* Contraindication to MRI or PET scans\n* Current treatment with immunoglobulin G (IgG) therapy",
      "healthyVolunteers": false,
      "sex": "ALL",
      "minimumAge": "60 Years",
      "maximumAge": "85 Years",
      "stdAges": [
        "ADULT",
        "OLDER_ADULT"
      ]
    },
    "contactsLocationsModule": {
      "overallOfficials": [
        {
          "name": "Call 1-877-CTLILLY (1-877-285-4559) or 1-317-615-4559 Mon - Fri 9 AM - 5 PM Eastern time (UTC/GMT - 5 hours, EST)",
          "affiliation": "Eli Lilly and Company",
          "role": "STUDY_DIRECTOR"
        }
      ],
      "locations": [
        {
          "facility": "Gilbert Neurology",
          "city": "Gilbert",
          "state": "Arizona",
          "zip": "85297",
          "country": "United States",
          "geoPoint": {
            "lat": 33.35283,
            "lon": -111.78903
          }
        },
        {
          "facility": "Xenoscience",
          "city": "Phoenix",
          "state": "Arizona",
          "zip": "85004",
          "country": "United States",
          "geoPoint": {
            "lat": 33.44838,
            "lon": -112.07404
          }
        },
        {
          "facility": "Banner Alzheimer's Institute",
          "city": "Phoenix",
          "state": "Arizona",
          "zip": "85006",
          "country": "United States",
          "geoPoint": {
            "lat": 33.44838,
            "lon": -112.07404
          }
        },
        {
          "facility": "Perseverance Research Center",
          "city": "Scottsdale",
          "state": "Arizona",
          "zip": "85254",
          "country": "United States",
          "geoPoint": {
            "lat": 33.50921,
            "lon": -111.89903
          }
        },
        {
          "facility": "Banner Sun Health Research Institute",
          "city": "Sun City",
          "state": "Arizona",
          "zip": "85351",
          "country": "United States",
          "geoPoint": {
            "lat": 33.59754,
            "lon": -112.27182
          }
        },
        {
          "facility": "Banner Alzheimer's Institute Tucson",
          "city": "Tucson",
          "state": "Arizona",
          "zip": "85718",
          "country": "United States",
          "geoPoint": {
            "lat": 32.22174,
            "lon": -110.92648
          }
        },
        {
          "facility": "Center for Neurosciences",
          "city": "Tucson",
          "state": "Arizona",
          "zip": "85718",
          "country": "United States",
          "geoPoint": {
            "lat": 32.22174,
            "lon": -110.92648
          }
        },
        {
          "facility": "Health Initiatives Research",
          "city": "Fayetteville",
          "state": "Arkansas",
          "zip": "72703",
          "country": "United States",
          "geoPoint": {
            "lat": 36.06258,
            "lon": -94.15743
          }
        },
        {
          "facility": "North County Neurology Associates",
          "city": "Carlsbad",
          "state": "California",
          "zip": "92011",
          "country": "United States",
          "geoPoint": {
            "lat": 33.15809,
            "lon": -117.35059
          }
        },
        {
          "facility": "Wr- Pri, Llc",
          "city": "Encino",
          "state": "California",
          "zip": "91316",
          "country": "United States",
          "geoPoint": {
            "lat": 34.15917,
            "lon": -118.50119
          }
        },
        {
          "facility": "Neuro-Pain Medical Center",
          "city": "Fresno",
          "state": "California",
          "zip": "93710",
          "country": "United States",
          "geoPoint": {
            "lat": 36.74773,
            "lon": -119.77237
          }
        },
        {
          "facility": "Neurology Center of North Orange County",
          "city": "Fullerton",
          "state": "California",
          "zip": "92835",
          "country": "United States",
          "geoPoint": {
            "lat": 33.87029,
            "lon": -117.92534
          }
        },
        {
          "facility": "Irvine Clinical Research",
          "city": "Irvine",
          "state": "California",
          "zip": "92614",
          "country": "United States",
          "geoPoint": {
            "lat": 33.66946,
            "lon": -117.82311
          }
        },
        {
          "facility": "Kaizen Brain Center",
          "city": "La Jolla",
          "state": "California",
          "zip": "92037",
          "country": "United States",
          "geoPoint": {
            "lat": 32.84727,
            "lon": -117.2742
          }
        },
        {
          "facility": "Senior Clinical Trials, Inc.",
          "city": "Laguna Hills",
          "state": "California",
          "zip": "92653",
          "country": "United States",
          "geoPoint": {
            "lat": 33.61252,
            "lon": -117.71283
          }
        },
        {
          "facility": "Collaborative Neuroscience Research, LLC",
          "city": "Los Alamitos",
          "state": "California",
          "zip": "90720",
          "country": "United States",
          "geoPoint": {
            "lat": 33.80307,
            "lon": -118.07256
          }
        },
        {
          "facility": "USC Keck School of Medicine",
          "city": "Los Angeles",
          "state": "California",
          "zip": "90033",
          "country": "United States",
          "geoPoint": {
            "lat": 34.05223,
            "lon": -118.24368
          }
        },
        {
          "facility": "Clinical Research Institute",
          "city": "Los Angeles",
          "state": "California",
          "zip": "90048",
          "country": "United States",
          "geoPoint": {
            "lat": 34.05223,
            "lon": -118.24368
          }
        },
        {
          "facility": "Neurovations",
          "city": "Napa",
          "state": "California",
          "zip": "94558",
          "country": "United States",
          "geoPoint": {
            "lat": 38.29714,
            "lon": -122.28553
          }
        },
        {
          "facility": "Hoag Memorial Hospital Presbyterian",
          "city": "Newport Beach",
          "state": "California",
          "zip": "92663",
          "country": "United States",
          "geoPoint": {
            "lat": 33.61891,
            "lon": -117.92895
          }
        },
        {
          "facility": "Stanford Neuroscience Health Center",
          "city": "Palo Alto",
          "state": "California",
          "zip": "94304",
          "country": "United States",
          "geoPoint": {
            "lat": 37.44188,
            "lon": -122.14302
          }
        },
        {
          "facility": "SC3 Research - Pasadena",
          "city": "Pasadena",
          "state": "California",
          "zip": "91105",
          "country": "United States",
          "geoPoint": {
            "lat": 34.14778,
            "lon": -118.14452
          }
        },
        {
          "facility": "PCND Neurology",
          "city": "Poway",
          "state": "California",
          "zip": "92064",
          "country": "United States",
          "geoPoint": {
            "lat": 32.96282,
            "lon": -117.03586
          }
        },
        {
          "facility": "Anderson Clinical Research",
          "city": "Redlands",
          "state": "California",
          "zip": "92374",
          "country": "United States",
          "geoPoint": {
            "lat": 34.05557,
            "lon": -117.18254
          }
        },
        {
          "facility": "Artemis Institute for Clinical Research",
          "city": "San Diego",
          "state": "California",
          "zip": "92103",
          "country": "United States",
          "geoPoint": {
            "lat": 32.71571,
            "lon": -117.16472
          }
        },
        {
          "facility": "Pacific Research Network",
          "city": "San Diego",
          "state": "California",
          "zip": "92103",
          "country": "United States",
          "geoPoint": {
            "lat": 32.71571,
            "lon": -117.16472
          }
        },
        {
          "facility": "Sharp Neurocognitive Research Center",
          "city": "San Diego",
          "state": "California",
          "zip": "92123",
          "country": "United States",
          "geoPoint": {
            "lat": 32.71571,
            "lon": -117.16472
          }
        },
        {
          "facility": "UCSF Memory and Aging Center",
          "city": "San Francisco",
          "state": "California",
          "zip": "94158",
          "country": "United States",
          "geoPoint": {
            "lat": 37.77493,
            "lon": -122.41942
          }
        },
        {
          "facility": "Syrentis Clinical Research",
          "city": "Santa Ana",
          "state": "California",
          "zip": "92705",
          "country": "United States",
          "geoPoint": {
            "lat": 33.74557,
            "lon": -117.86783
          }
        },
        {
          "facility": "California Neuroscience Research Medical Group, Inc.",
          "city": "Sherman Oaks",
          "state": "California",
          "zip": "91403",
          "country": "United States",
          "geoPoint": {
            "lat": 34.15112,
            "lon": -118.44925
          }
        },
        {
          "facility": "Tilda Research",
          "city": "Tustin",
          "state": "California",
          "zip": "92780",
          "country": "United States",
          "geoPoint": {
            "lat": 33.74585,
            "lon": -117.82617
          }
        },
        {
          "facility": "Mountain Neurological Research Center",
          "city": "Basalt",
          "state": "Colorado",
          "zip": "81621",
          "country": "United States",
          "geoPoint": {
            "lat": 39.36887,
            "lon": -107.03282
          }
        },
        {
          "facility": "Alpine Clinical Research Center",
          "city": "Boulder",
          "state": "Colorado",
          "zip": "80301",
          "country": "United States",
          "geoPoint": {
            "lat": 40.01499,
            "lon": -105.27055
          }
        },
        {
          "facility": "Colorado Springs Neurological Associates",
          "city": "Colorado Springs",
          "state": "Colorado",
          "zip": "80907",
          "country": "United States",
          "geoPoint": {
            "lat": 38.83388,
            "lon": -104.82136
          }
        },
        {
          "facility": "Colorado Neurological Research Center, PC",
          "city": "Denver",
          "state": "Colorado",
          "zip": "80210",
          "country": "United States",
          "geoPoint": {
            "lat": 39.73915,
            "lon": -104.9847
          }
        },
        {
          "facility": "Institute for Neurodegenerative Disorders",
          "city": "New Haven",
          "state": "Connecticut",
          "zip": "06510",
          "country": "United States",
          "geoPoint": {
            "lat": 41.30815,
            "lon": -72.92816
          }
        },
        {
          "facility": "Yale University, Alzheimer's Disease Research Unit",
          "city": "New Haven",
          "state": "Connecticut",
          "zip": "06510",
          "country": "United States",
          "geoPoint": {
            "lat": 41.30815,
            "lon": -72.92816
          }
        },
        {
          "facility": "Research Center for Clinical Studies",
          "city": "Norwalk",
          "state": "Connecticut",
          "zip": "06851",
          "country": "United States",
          "geoPoint": {
            "lat": 41.1176,
            "lon": -73.4079
          }
        },
        {
          "facility": "Ki Health Partners, LLc, dba New England Institute for Clinical Research",
          "city": "Stamford",
          "state": "Connecticut",
          "zip": "06905",
          "country": "United States",
          "geoPoint": {
            "lat": 41.05343,
            "lon": -73.53873
          }
        },
        {
          "facility": "Georgetown University Medical Center",
          "city": "Washington D.C.",
          "state": "District of Columbia",
          "zip": "20007",
          "country": "United States",
          "geoPoint": {
            "lat": 38.89511,
            "lon": -77.03637
          }
        },
        {
          "facility": "JEM Research Institute",
          "city": "Atlantis",
          "state": "Florida",
          "zip": "33462",
          "country": "United States",
          "geoPoint": {
            "lat": 26.5909,
            "lon": -80.10088
          }
        },
        {
          "facility": "VIN-Julie Schwartzbard",
          "city": "Aventura",
          "state": "Florida",
          "zip": "33180",
          "country": "United States",
          "geoPoint": {
            "lat": 25.95648,
            "lon": -80.13921
          }
        },
        {
          "facility": "Neurology Offices of South Florida",
          "city": "Boca Raton",
          "state": "Florida",
          "zip": "33428",
          "country": "United States",
          "geoPoint": {
            "lat": 26.35869,
            "lon": -80.0831
          }
        },
        {
          "facility": "SFM Clinical Research",
          "city": "Boca Raton",
          "state": "Florida",
          "zip": "33487",
          "country": "United States",
          "geoPoint": {
            "lat": 26.35869,
            "lon": -80.0831
          }
        },
        {
          "facility": "Brain Matters Research",
          "city": "Delray Beach",
          "state": "Florida",
          "zip": "33445",
          "country": "United States",
          "geoPoint": {
            "lat": 26.46146,
            "lon": -80.07282
          }
        },
        {
          "facility": "Cohen Medical Associates",
          "city": "Delray Beach",
          "state": "Florida",
          "zip": "33446",
          "country": "United States",
          "geoPoint": {
            "lat": 26.46146,
            "lon": -80.07282
          }
        },
        {
          "facility": "Integrity Clinical Research",
          "city": "Doral",
          "state": "Florida",
          "zip": "33166",
          "country": "United States",
          "geoPoint": {
            "lat": 25.81954,
            "lon": -80.35533
          }
        },
        {
          "facility": "Neuropsychiatric Research Center of Southwest Florida",
          "city": "Fort Myers",
          "state": "Florida",
          "zip": "33912",
          "country": "United States",
          "geoPoint": {
            "lat": 26.62168,
            "lon": -81.84059
          }
        },
        {
          "facility": "Finlay Medical Research",
          "city": "Greenacres City",
          "state": "Florida",
          "zip": "33467",
          "country": "United States",
          "geoPoint": {
            "lat": 26.62368,
            "lon": -80.12532
          }
        },
        {
          "facility": "MD Clinical",
          "city": "Hallandale",
          "state": "Florida",
          "zip": "33009",
          "country": "United States",
          "geoPoint": {
            "lat": 25.9812,
            "lon": -80.14838
          }
        },
        {
          "facility": "AGA Clinical Trials",
          "city": "Hialeah",
          "state": "Florida",
          "zip": "33012",
          "country": "United States",
          "geoPoint": {
            "lat": 25.8576,
            "lon": -80.27811
          }
        },
        {
          "facility": "Indago Research & Health Center, Inc",
          "city": "Hialeah",
          "state": "Florida",
          "zip": "33012",
          "country": "United States",
          "geoPoint": {
            "lat": 25.8576,
            "lon": -80.27811
          }
        },
        {
          "facility": "Infinity Clinical Research, LLC",
          "city": "Hollywood",
          "state": "Florida",
          "zip": "33024",
          "country": "United States",
          "geoPoint": {
            "lat": 26.0112,
            "lon": -80.14949
          }
        },
        {
          "facility": "Encore Research Group- Jacksonville Center for Clinical Research",
          "city": "Jacksonville",
          "state": "Florida",
          "zip": "32216",
          "country": "United States",
          "geoPoint": {
            "lat": 30.33218,
            "lon": -81.65565
          }
        },
        {
          "facility": "Accel Research Sites - Lakeland Clinical Research Unit",
          "city": "Lakeland",
          "state": "Florida",
          "zip": "33803",
          "country": "United States",
          "geoPoint": {
            "lat": 28.03947,
            "lon": -81.9498
          }
        },
        {
          "facility": "ClinCloud - Maitland",
          "city": "Maitland",
          "state": "Florida",
          "zip": "32751",
          "country": "United States",
          "geoPoint": {
            "lat": 28.62778,
            "lon": -81.36312
          }
        },
        {
          "facility": "Merritt Island Medical Research, LLC",
          "city": "Merritt Island",
          "state": "Florida",
          "zip": "32952",
          "country": "United States",
          "geoPoint": {
            "lat": 28.359,
            "lon": -80.69
          }
        },
        {
          "facility": "Homestead Associates in Research",
          "city": "Miami",
          "state": "Florida",
          "zip": "33032",
          "country": "United States",
          "geoPoint": {
            "lat": 25.77427,
            "lon": -80.19366
          }
        },
        {
          "facility": "Finlay Medical Research",
          "city": "Miami",
          "state": "Florida",
          "zip": "33126",
          "country": "United States",
          "geoPoint": {
            "lat": 25.77427,
            "lon": -80.19366
          }
        },
        {
          "facility": "Optimus U Corporation",
          "city": "Miami",
          "state": "Florida",
          "zip": "33135",
          "country": "United States",
          "geoPoint": {
            "lat": 25.77427,
            "lon": -80.19366
          }
        },
        {
          "facility": "Miami Jewish health",
          "city": "Miami",
          "state": "Florida",
          "zip": "33137",
          "country": "United States",
          "geoPoint": {
            "lat": 25.77427,
            "lon": -80.19366
          }
        },
        {
          "facility": "Future Care Solution",
          "city": "Miami",
          "state": "Florida",
          "zip": "33142",
          "country": "United States",
          "geoPoint": {
            "lat": 25.77427,
            "lon": -80.19366
          }
        },
        {
          "facility": "Allied Biomedical Research Institute",
          "city": "Miami",
          "state": "Florida",
          "zip": "33155",
          "country": "United States",
          "geoPoint": {
            "lat": 25.77427,
            "lon": -80.19366
          }
        },
        {
          "facility": "New Horizon Research Center",
          "city": "Miami",
          "state": "Florida",
          "zip": "33165",
          "country": "United States",
          "geoPoint": {
            "lat": 25.77427,
            "lon": -80.19366
          }
        },
        {
          "facility": "Florida International Research Center",
          "city": "Miami",
          "state": "Florida",
          "zip": "33173",
          "country": "United States",
          "geoPoint": {
            "lat": 25.77427,
            "lon": -80.19366
          }
        },
        {
          "facility": "Ezy Medical Research",
          "city": "Miami",
          "state": "Florida",
          "zip": "33175",
          "country": "United States",
          "geoPoint": {
            "lat": 25.77427,
            "lon": -80.19366
          }
        },
        {
          "facility": "Miami Dade Medical Research Institute, LLC",
          "city": "Miami",
          "state": "Florida",
          "zip": "33176",
          "country": "United States",
          "geoPoint": {
            "lat": 25.77427,
            "lon": -80.19366
          }
        },
        {
          "facility": "The Neurology Research Group",
          "city": "Miami",
          "state": "Florida",
          "zip": "33176",
          "country": "United States",
          "geoPoint": {
            "lat": 25.77427,
            "lon": -80.19366
          }
        },
        {
          "facility": "VIN-Victor Faradji",
          "city": "Miami",
          "state": "Florida",
          "zip": "33176",
          "country": "United States",
          "geoPoint": {
            "lat": 25.77427,
            "lon": -80.19366
          }
        },
        {
          "facility": "Mount Sinai Cancer Center",
          "city": "Miami Beach",
          "state": "Florida",
          "zip": "33140",
          "country": "United States",
          "geoPoint": {
            "lat": 25.79065,
            "lon": -80.13005
          }
        },
        {
          "facility": "Goji Group - Research Trials Group",
          "city": "Miami Lakes",
          "state": "Florida",
          "zip": "33016",
          "country": "United States",
          "geoPoint": {
            "lat": 25.90871,
            "lon": -80.30866
          }
        },
        {
          "facility": "Collier Neurologic Specialists",
          "city": "Naples",
          "state": "Florida",
          "zip": "34105",
          "country": "United States",
          "geoPoint": {
            "lat": 26.14234,
            "lon": -81.79596
          }
        },
        {
          "facility": "Suncoast Clinical Research, Inc.",
          "city": "New Port Richey",
          "state": "Florida",
          "zip": "34652",
          "country": "United States",
          "geoPoint": {
            "lat": 28.24418,
            "lon": -82.71927
          }
        },
        {
          "facility": "Renstar Medical Research",
          "city": "Ocala",
          "state": "Florida",
          "zip": "34470",
          "country": "United States",
          "geoPoint": {
            "lat": 29.1872,
            "lon": -82.14009
          }
        },
        {
          "facility": "Sensible Healthcare, LLC",
          "city": "Ocoee",
          "state": "Florida",
          "zip": "34761",
          "country": "United States",
          "geoPoint": {
            "lat": 28.56917,
            "lon": -81.54396
          }
        },
        {
          "facility": "Medical Research Group of Central Florida",
          "city": "Orange City",
          "state": "Florida",
          "zip": "32763",
          "country": "United States",
          "geoPoint": {
            "lat": 28.94888,
            "lon": -81.29867
          }
        },
        {
          "facility": "Synexus Clinical Research US, Inc.",
          "city": "Orlando",
          "state": "Florida",
          "zip": "32806",
          "country": "United States",
          "geoPoint": {
            "lat": 28.53834,
            "lon": -81.37924
          }
        },
        {
          "facility": "Headlands Research Orlando",
          "city": "Orlando",
          "state": "Florida",
          "zip": "32819",
          "country": "United States",
          "geoPoint": {
            "lat": 28.53834,
            "lon": -81.37924
          }
        },
        {
          "facility": "IMIC, Inc.",
          "city": "Palmetto Bay",
          "state": "Florida",
          "zip": "33157",
          "country": "United States",
          "geoPoint": {
            "lat": 25.62177,
            "lon": -80.32477
          }
        },
        {
          "facility": "Emerald Coast Neurology - Airport Boulevard",
          "city": "Pensacola",
          "state": "Florida",
          "zip": "32504",
          "country": "United States",
          "geoPoint": {
            "lat": 30.42131,
            "lon": -87.21691
          }
        },
        {
          "facility": "Quantum Laboratories Clinical Research",
          "city": "Pompano Beach",
          "state": "Florida",
          "zip": "33064",
          "country": "United States",
          "geoPoint": {
            "lat": 26.23786,
            "lon": -80.12477
          }
        },
        {
          "facility": "Progressive Medical Research",
          "city": "Port Orange",
          "state": "Florida",
          "zip": "32127",
          "country": "United States",
          "geoPoint": {
            "lat": 29.13832,
            "lon": -80.99561
          }
        },
        {
          "facility": "Intercoastal Medical Group",
          "city": "Sarasota",
          "state": "Florida",
          "zip": "34239",
          "country": "United States",
          "geoPoint": {
            "lat": 27.33643,
            "lon": -82.53065
          }
        },
        {
          "facility": "Roskamp Institute Clinical Trials Division",
          "city": "Sarasota",
          "state": "Florida",
          "zip": "34243",
          "country": "United States",
          "geoPoint": {
            "lat": 27.33643,
            "lon": -82.53065
          }
        },
        {
          "facility": "Suncoast Neuroscience Associates, Inc.",
          "city": "St. Petersburg",
          "state": "Florida",
          "zip": "33713",
          "country": "United States",
          "geoPoint": {
            "lat": 27.77086,
            "lon": -82.67927
          }
        },
        {
          "facility": "Alzheimer's Research and Treatment Center",
          "city": "Stuart",
          "state": "Florida",
          "zip": "34997",
          "country": "United States",
          "geoPoint": {
            "lat": 27.19755,
            "lon": -80.25283
          }
        },
        {
          "facility": "Brain Matters Research",
          "city": "Stuart",
          "state": "Florida",
          "zip": "34997",
          "country": "United States",
          "geoPoint": {
            "lat": 27.19755,
            "lon": -80.25283
          }
        },
        {
          "facility": "Tallahassee Neurological Clinic",
          "city": "Tallahassee",
          "state": "Florida",
          "zip": "32308",
          "country": "United States",
          "geoPoint": {
            "lat": 30.43826,
            "lon": -84.28073
          }
        },
        {
          "facility": "Axiom Clinical Research of Florida",
          "city": "Tampa",
          "state": "Florida",
          "zip": "33609",
          "country": "United States",
          "geoPoint": {
            "lat": 27.94752,
            "lon": -82.45843
          }
        },
        {
          "facility": "Stedman Clinical Trials",
          "city": "Tampa",
          "state": "Florida",
          "zip": "33613",
          "country": "United States",
          "geoPoint": {
            "lat": 27.94752,
            "lon": -82.45843
          }
        },
        {
          "facility": "USF Health Byrd Alzheimer's Institute",
          "city": "Tampa",
          "state": "Florida",
          "zip": "33613",
          "country": "United States",
          "geoPoint": {
            "lat": 27.94752,
            "lon": -82.45843
          }
        },
        {
          "facility": "Charter Research - Lady Lake",
          "city": "The Villages",
          "state": "Florida",
          "zip": "32162",
          "country": "United States",
          "geoPoint": {
            "lat": 28.93408,
            "lon": -81.95994
          }
        },
        {
          "facility": "Synexus Clinical Research US, Inc.",
          "city": "The Villages",
          "state": "Florida",
          "zip": "32162",
          "country": "United States",
          "geoPoint": {
            "lat": 28.93408,
            "lon": -81.95994
          }
        },
        {
          "facility": "Alzheimer's Research and Treatment Center",
          "city": "Wellington",
          "state": "Florida",
          "zip": "33414",
          "country": "United States",
          "geoPoint": {
            "lat": 26.65868,
            "lon": -80.24144
          }
        },
        {
          "facility": "Palm Beach Neurology",
          "city": "West Palm Beach",
          "state": "Florida",
          "zip": "33407",
          "country": "United States",
          "geoPoint": {
            "lat": 26.71534,
            "lon": -80.05337
          }
        },
        {
          "facility": "Conquest Research",
          "city": "Winter Park",
          "state": "Florida",
          "zip": "32789",
          "country": "United States",
          "geoPoint": {
            "lat": 28.6,
            "lon": -81.33924
          }
        },
        {
          "facility": "Charter Research - Winter Park",
          "city": "Winter Park",
          "state": "Florida",
          "zip": "32803",
          "country": "United States",
          "geoPoint": {
            "lat": 28.6,
            "lon": -81.33924
          }
        },
        {
          "facility": "Gwinnett Research Institute",
          "city": "Buford",
          "state": "Georgia",
          "zip": "30519",
          "country": "United States",
          "geoPoint": {
            "lat": 34.12066,
            "lon": -84.00435
          }
        },
        {
          "facility": "Columbus Memory Center, LLC",
          "city": "Columbus",
          "state": "Georgia",
          "zip": "31909",
          "country": "United States",
          "geoPoint": {
            "lat": 32.46098,
            "lon": -84.98771
          }
        },
        {
          "facility": "NeuroStudies",
          "city": "Decatur",
          "state": "Georgia",
          "zip": "30030",
          "country": "United States",
          "geoPoint": {
            "lat": 33.77483,
            "lon": -84.29631
          }
        },
        {
          "facility": "Center for Advanced Research & Education",
          "city": "Gainesville",
          "state": "Georgia",
          "zip": "30501",
          "country": "United States",
          "geoPoint": {
            "lat": 34.29788,
            "lon": -83.82407
          }
        },
        {
          "facility": "Northwest Clinical Trials",
          "city": "Boise",
          "state": "Idaho",
          "zip": "83704",
          "country": "United States",
          "geoPoint": {
            "lat": 43.6135,
            "lon": -116.20345
          }
        },
        {
          "facility": "Great Lakes Clinical Trials - Andersonville",
          "city": "Chicago",
          "state": "Illinois",
          "zip": "60640",
          "country": "United States",
          "geoPoint": {
            "lat": 41.85003,
            "lon": -87.65005
          }
        },
        {
          "facility": "AMITA Health - Alexian Brothers Neurosciences Institute Clinical Research",
          "city": "Elk Grove Village",
          "state": "Illinois",
          "zip": "60007",
          "country": "United States",
          "geoPoint": {
            "lat": 42.00392,
            "lon": -87.97035
          }
        },
        {
          "facility": "Advocate Medical Group",
          "city": "Park Ridge",
          "state": "Illinois",
          "zip": "60068",
          "country": "United States",
          "geoPoint": {
            "lat": 42.01114,
            "lon": -87.84062
          }
        },
        {
          "facility": "Southern Illinois University School of Medicine",
          "city": "Springfield",
          "state": "Illinois",
          "zip": "62702",
          "country": "United States",
          "geoPoint": {
            "lat": 39.80172,
            "lon": -89.64371
          }
        },
        {
          "facility": "Indiana University",
          "city": "Indianapolis",
          "state": "Indiana",
          "zip": "46202",
          "country": "United States",
          "geoPoint": {
            "lat": 39.76838,
            "lon": -86.15804
          }
        },
        {
          "facility": "Josephson Wallack Munshower Neurology, PC",
          "city": "Indianapolis",
          "state": "Indiana",
          "zip": "46256",
          "country": "United States",
          "geoPoint": {
            "lat": 39.76838,
            "lon": -86.15804
          }
        },
        {
          "facility": "McFarland Clinic, PC",
          "city": "Ames",
          "state": "Iowa",
          "zip": "50010",
          "country": "United States",
          "geoPoint": {
            "lat": 42.03471,
            "lon": -93.61994
          }
        },
        {
          "facility": "Covenant Medical Center",
          "city": "Waterloo",
          "state": "Iowa",
          "zip": "50702",
          "country": "United States",
          "geoPoint": {
            "lat": 42.49276,
            "lon": -92.34296
          }
        },
        {
          "facility": "The University of Kansas - Clinical Research Center",
          "city": "Fairway",
          "state": "Kansas",
          "zip": "66205",
          "country": "United States",
          "geoPoint": {
            "lat": 39.02223,
            "lon": -94.6319
          }
        },
        {
          "facility": "College Park Family Care Center/Multi Specialty Clinical Res",
          "city": "Overland Park",
          "state": "Kansas",
          "zip": "66212",
          "country": "United States",
          "geoPoint": {
            "lat": 38.98223,
            "lon": -94.67079
          }
        },
        {
          "facility": "Cotton O'Neil Clinical Research Center - Central Office",
          "city": "Topeka",
          "state": "Kansas",
          "zip": "66606",
          "country": "United States",
          "geoPoint": {
            "lat": 39.04833,
            "lon": -95.67804
          }
        },
        {
          "facility": "Ascension Via Christi Research",
          "city": "Wichita",
          "state": "Kansas",
          "zip": "67214",
          "country": "United States",
          "geoPoint": {
            "lat": 37.69224,
            "lon": -97.33754
          }
        },
        {
          "facility": "Maine Medical Center-Maine Medical Partners Neurology",
          "city": "Scarborough",
          "state": "Maine",
          "zip": "04074",
          "country": "United States",
          "geoPoint": {
            "lat": 43.57814,
            "lon": -70.32172
          }
        },
        {
          "facility": "Brigham and Women's Hospital",
          "city": "Boston",
          "state": "Massachusetts",
          "zip": "02115",
          "country": "United States",
          "geoPoint": {
            "lat": 42.35843,
            "lon": -71.05977
          }
        },
        {
          "facility": "Boston Clinical Trials",
          "city": "Boston",
          "state": "Massachusetts",
          "zip": "02131",
          "country": "United States",
          "geoPoint": {
            "lat": 42.35843,
            "lon": -71.05977
          }
        },
        {
          "facility": "NECCR PrimaCare Research",
          "city": "Fall River",
          "state": "Massachusetts",
          "zip": "02721",
          "country": "United States",
          "geoPoint": {
            "lat": 41.70149,
            "lon": -71.15505
          }
        },
        {
          "facility": "BTC Network",
          "city": "New Bedford",
          "state": "Massachusetts",
          "zip": "02740",
          "country": "United States",
          "geoPoint": {
            "lat": 41.63526,
            "lon": -70.92701
          }
        },
        {
          "facility": "Boston Center for Memory",
          "city": "Newton",
          "state": "Massachusetts",
          "zip": "02459",
          "country": "United States",
          "geoPoint": {
            "lat": 42.33704,
            "lon": -71.20922
          }
        },
        {
          "facility": "Donald S. Marks M.D., P.C.",
          "city": "Plymouth",
          "state": "Massachusetts",
          "zip": "02360",
          "country": "United States",
          "geoPoint": {
            "lat": 41.95844,
            "lon": -70.66726
          }
        },
        {
          "facility": "Alzheimers Disease Center",
          "city": "Quincy",
          "state": "Massachusetts",
          "zip": "02169",
          "country": "United States",
          "geoPoint": {
            "lat": 42.25288,
            "lon": -71.00227
          }
        },
        {
          "facility": "MedVadis Research Corporation",
          "city": "Waltham",
          "state": "Massachusetts",
          "zip": "02451",
          "country": "United States",
          "geoPoint": {
            "lat": 42.37649,
            "lon": -71.23561
          }
        },
        {
          "facility": "Adams Clinical",
          "city": "Watertown",
          "state": "Massachusetts",
          "zip": "02472",
          "country": "United States",
          "geoPoint": {
            "lat": 42.37093,
            "lon": -71.18283
          }
        },
        {
          "facility": "QUEST Research Institute",
          "city": "Farmington Hills",
          "state": "Michigan",
          "zip": "48334",
          "country": "United States",
          "geoPoint": {
            "lat": 42.48531,
            "lon": -83.37716
          }
        },
        {
          "facility": "Precise Research Centers",
          "city": "Flowood",
          "state": "Mississippi",
          "zip": "39232",
          "country": "United States",
          "geoPoint": {
            "lat": 32.30959,
            "lon": -90.13898
          }
        },
        {
          "facility": "Citizens Memorial Hospital District",
          "city": "Bolivar",
          "state": "Missouri",
          "zip": "65613",
          "country": "United States",
          "geoPoint": {
            "lat": 37.61448,
            "lon": -93.41047
          }
        },
        {
          "facility": "Clinical Research Professionals",
          "city": "Chesterfield",
          "state": "Missouri",
          "zip": "63005",
          "country": "United States",
          "geoPoint": {
            "lat": 38.66311,
            "lon": -90.57707
          }
        },
        {
          "facility": "North Kansas City Hospital",
          "city": "North Kansas City",
          "state": "Missouri",
          "zip": "64116",
          "country": "United States",
          "geoPoint": {
            "lat": 39.13,
            "lon": -94.56218
          }
        },
        {
          "facility": "Sharlin Health and Neurology",
          "city": "Ozark",
          "state": "Missouri",
          "zip": "65721",
          "country": "United States",
          "geoPoint": {
            "lat": 37.02089,
            "lon": -93.20602
          }
        },
        {
          "facility": "Arch Clinical Trials",
          "city": "St Louis",
          "state": "Missouri",
          "zip": "63141",
          "country": "United States",
          "geoPoint": {
            "lat": 38.62727,
            "lon": -90.19789
          }
        },
        {
          "facility": "Las Vegas Medical Research",
          "city": "Las Vegas",
          "state": "Nevada",
          "zip": "89128",
          "country": "United States",
          "geoPoint": {
            "lat": 36.17497,
            "lon": -115.13722
          }
        },
        {
          "facility": "The Cognitive and Research Center of New Jersey",
          "city": "Springfield",
          "state": "New Jersey",
          "zip": "07081",
          "country": "United States",
          "geoPoint": {
            "lat": 40.70491,
            "lon": -74.31723
          }
        },
        {
          "facility": "Advanced Memory Research Institute of New Jersey",
          "city": "Toms River",
          "state": "New Jersey",
          "zip": "08755",
          "country": "United States",
          "geoPoint": {
            "lat": 39.95373,
            "lon": -74.19792
          }
        },
        {
          "facility": "Bio Behavioral Health",
          "city": "Toms River",
          "state": "New Jersey",
          "zip": "08755",
          "country": "United States",
          "geoPoint": {
            "lat": 39.95373,
            "lon": -74.19792
          }
        },
        {
          "facility": "Albany Medical College",
          "city": "Albany",
          "state": "New York",
          "zip": "12208",
          "country": "United States",
          "geoPoint": {
            "lat": 42.65258,
            "lon": -73.75623
          }
        },
        {
          "facility": "Neurological Associates Albany",
          "city": "Albany",
          "state": "New York",
          "zip": "12208",
          "country": "United States",
          "geoPoint": {
            "lat": 42.65258,
            "lon": -73.75623
          }
        },
        {
          "facility": "Dent Neurologic Institute",
          "city": "Amherst",
          "state": "New York",
          "zip": "14226",
          "country": "United States",
          "geoPoint": {
            "lat": 42.97839,
            "lon": -78.79976
          }
        },
        {
          "facility": "University at Buffalo - UBMD Neurology",
          "city": "Buffalo",
          "state": "New York",
          "zip": "14203",
          "country": "United States",
          "geoPoint": {
            "lat": 42.88645,
            "lon": -78.87837
          }
        },
        {
          "facility": "Clarity Clinical Research",
          "city": "East Syracuse",
          "state": "New York",
          "zip": "13057",
          "country": "United States",
          "geoPoint": {
            "lat": 43.06534,
            "lon": -76.07853
          }
        },
        {
          "facility": "NYU Langone Health",
          "city": "New York",
          "state": "New York",
          "zip": "10016",
          "country": "United States",
          "geoPoint": {
            "lat": 40.71427,
            "lon": -74.00597
          }
        },
        {
          "facility": "University of Rochester Medical Center",
          "city": "Rochester",
          "state": "New York",
          "zip": "14642",
          "country": "United States",
          "geoPoint": {
            "lat": 43.15478,
            "lon": -77.61556
          }
        },
        {
          "facility": "Richmond Behavioral Associates",
          "city": "Staten Island",
          "state": "New York",
          "zip": "10312",
          "country": "United States",
          "geoPoint": {
            "lat": 40.56233,
            "lon": -74.13986
          }
        },
        {
          "facility": "SUNY Upstate Medical University",
          "city": "Syracuse",
          "state": "New York",
          "zip": "13210",
          "country": "United States",
          "geoPoint": {
            "lat": 43.04812,
            "lon": -76.14742
          }
        },
        {
          "facility": "CHS-Behavioral Health Research",
          "city": "Charlotte",
          "state": "North Carolina",
          "zip": "28211",
          "country": "United States",
          "geoPoint": {
            "lat": 35.22709,
            "lon": -80.84313
          }
        },
        {
          "facility": "Guilford Neurologic Associates, Inc",
          "city": "Greensboro",
          "state": "North Carolina",
          "zip": "27405",
          "country": "United States",
          "geoPoint": {
            "lat": 36.07264,
            "lon": -79.79198
          }
        },
        {
          "facility": "AMC Research",
          "city": "Matthews",
          "state": "North Carolina",
          "zip": "28105",
          "country": "United States",
          "geoPoint": {
            "lat": 35.11681,
            "lon": -80.72368
          }
        },
        {
          "facility": "Carteret Medical Group",
          "city": "Morehead City",
          "state": "North Carolina",
          "zip": "28557",
          "country": "United States",
          "geoPoint": {
            "lat": 34.72294,
            "lon": -76.72604
          }
        },
        {
          "facility": "Accellacare - Winston-Salem",
          "city": "Winston-Salem",
          "state": "North Carolina",
          "zip": "27103",
          "country": "United States",
          "geoPoint": {
            "lat": 36.09986,
            "lon": -80.24422
          }
        },
        {
          "facility": "NeuroScience Research Center",
          "city": "Canton",
          "state": "Ohio",
          "zip": "44718",
          "country": "United States",
          "geoPoint": {
            "lat": 40.79895,
            "lon": -81.37845
          }
        },
        {
          "facility": "Valley Medical Research",
          "city": "Centerville",
          "state": "Ohio",
          "zip": "45459",
          "country": "United States",
          "geoPoint": {
            "lat": 39.62839,
            "lon": -84.15938
          }
        },
        {
          "facility": "Rapid Medical Research",
          "city": "Cleveland",
          "state": "Ohio",
          "zip": "44122",
          "country": "United States",
          "geoPoint": {
            "lat": 41.4995,
            "lon": -81.69541
          }
        },
        {
          "facility": "Ohio State University",
          "city": "Columbus",
          "state": "Ohio",
          "zip": "43210",
          "country": "United States",
          "geoPoint": {
            "lat": 39.96118,
            "lon": -82.99879
          }
        },
        {
          "facility": "University of Cincinnati Physicians Company, LLC",
          "city": "Dayton",
          "state": "Ohio",
          "zip": "45417",
          "country": "United States",
          "geoPoint": {
            "lat": 39.75895,
            "lon": -84.19161
          }
        },
        {
          "facility": "Neurology Diagnostics, Inc.",
          "city": "Dayton",
          "state": "Ohio",
          "zip": "45459",
          "country": "United States",
          "geoPoint": {
            "lat": 39.75895,
            "lon": -84.19161
          }
        },
        {
          "facility": "IPS Research Company",
          "city": "Oklahoma City",
          "state": "Oklahoma",
          "zip": "73106",
          "country": "United States",
          "geoPoint": {
            "lat": 35.46756,
            "lon": -97.51643
          }
        },
        {
          "facility": "Lynn Health Science Institute",
          "city": "Oklahoma City",
          "state": "Oklahoma",
          "zip": "73112",
          "country": "United States",
          "geoPoint": {
            "lat": 35.46756,
            "lon": -97.51643
          }
        },
        {
          "facility": "Central States Research",
          "city": "Tulsa",
          "state": "Oklahoma",
          "zip": "74136",
          "country": "United States",
          "geoPoint": {
            "lat": 36.15398,
            "lon": -95.99277
          }
        },
        {
          "facility": "Summit Headlands",
          "city": "Portland",
          "state": "Oregon",
          "zip": "97210",
          "country": "United States",
          "geoPoint": {
            "lat": 45.52345,
            "lon": -122.67621
          }
        },
        {
          "facility": "Center for Cognitive Health",
          "city": "Portland",
          "state": "Oregon",
          "zip": "97225",
          "country": "United States",
          "geoPoint": {
            "lat": 45.52345,
            "lon": -122.67621
          }
        },
        {
          "facility": "Abington Neurological Associates, Ltd.",
          "city": "Abington",
          "state": "Pennsylvania",
          "zip": "19001",
          "country": "United States",
          "geoPoint": {
            "lat": 40.12067,
            "lon": -75.11795
          }
        },
        {
          "facility": "Penn Medicine: University of Pennsylvania Health System",
          "city": "Philadelphia",
          "state": "Pennsylvania",
          "zip": "19104",
          "country": "United States",
          "geoPoint": {
            "lat": 39.95238,
            "lon": -75.16362
          }
        },
        {
          "facility": "Keystone Clinical Studies",
          "city": "Plymouth Meeting",
          "state": "Pennsylvania",
          "zip": "19462",
          "country": "United States",
          "geoPoint": {
            "lat": 40.10233,
            "lon": -75.27435
          }
        },
        {
          "facility": "Rhode Island Mood & Memory Research Institute",
          "city": "East Providence",
          "state": "Rhode Island",
          "zip": "02914",
          "country": "United States",
          "geoPoint": {
            "lat": 41.81371,
            "lon": -71.37005
          }
        },
        {
          "facility": "Prism Health Richland Department of Neurology Research",
          "city": "Columbia",
          "state": "South Carolina",
          "zip": "29203",
          "country": "United States",
          "geoPoint": {
            "lat": 34.00071,
            "lon": -81.03481
          }
        },
        {
          "facility": "Neurology Clinic, P.C.",
          "city": "Cordova",
          "state": "Tennessee",
          "zip": "38018",
          "country": "United States",
          "geoPoint": {
            "lat": 35.15565,
            "lon": -89.7762
          }
        },
        {
          "facility": "Clinical Neuroscience Solutions, Inc. dba CNS Healthcare",
          "city": "Memphis",
          "state": "Tennessee",
          "zip": "38119",
          "country": "United States",
          "geoPoint": {
            "lat": 35.14953,
            "lon": -90.04898
          }
        },
        {
          "facility": "Senior Adults Specialty Research",
          "city": "Austin",
          "state": "Texas",
          "zip": "78757",
          "country": "United States",
          "geoPoint": {
            "lat": 30.26715,
            "lon": -97.74306
          }
        },
        {
          "facility": "Gadolin Research",
          "city": "Beaumont",
          "state": "Texas",
          "zip": "77702",
          "country": "United States",
          "geoPoint": {
            "lat": 30.08605,
            "lon": -94.10185
          }
        },
        {
          "facility": "Kerwin Medical Center",
          "city": "Dallas",
          "state": "Texas",
          "zip": "75231",
          "country": "United States",
          "geoPoint": {
            "lat": 32.78306,
            "lon": -96.80667
          }
        },
        {
          "facility": "Neurology Consultants of Dallas, PA",
          "city": "Dallas",
          "state": "Texas",
          "zip": "75243",
          "country": "United States",
          "geoPoint": {
            "lat": 32.78306,
            "lon": -96.80667
          }
        },
        {
          "facility": "InSite Clinical Research",
          "city": "DeSoto",
          "state": "Texas",
          "zip": "75115",
          "country": "United States",
          "geoPoint": {
            "lat": 32.58986,
            "lon": -96.85695
          }
        },
        {
          "facility": "Houston Methodist Hospital",
          "city": "Houston",
          "state": "Texas",
          "zip": "77030",
          "country": "United States",
          "geoPoint": {
            "lat": 29.76328,
            "lon": -95.36327
          }
        },
        {
          "facility": "The University of Texas Health Science Center at Houston",
          "city": "Houston",
          "state": "Texas",
          "zip": "77030",
          "country": "United States",
          "geoPoint": {
            "lat": 29.76328,
            "lon": -95.36327
          }
        },
        {
          "facility": "Central Texas Neurology Consultants",
          "city": "Round Rock",
          "state": "Texas",
          "zip": "78681",
          "country": "United States",
          "geoPoint": {
            "lat": 30.50826,
            "lon": -97.6789
          }
        },
        {
          "facility": "Glenn Biggs Institute for Alzheimers & Neurodegenerative Diseases",
          "city": "San Antonio",
          "state": "Texas",
          "zip": "78229-3900",
          "country": "United States",
          "geoPoint": {
            "lat": 29.42412,
            "lon": -98.49363
          }
        },
        {
          "facility": "The Memory Clinic",
          "city": "Bennington",
          "state": "Vermont",
          "zip": "05201-9810",
          "country": "United States",
          "geoPoint": {
            "lat": 42.87813,
            "lon": -73.19677
          }
        },
        {
          "facility": "Integrated Neurology Services - Falls Church",
          "city": "Arlington",
          "state": "Virginia",
          "zip": "22207",
          "country": "United States",
          "geoPoint": {
            "lat": 38.88101,
            "lon": -77.10428
          }
        },
        {
          "facility": "Sentara Norfolk General Hospital",
          "city": "Norfolk",
          "state": "Virginia",
          "zip": "23510",
          "country": "United States",
          "geoPoint": {
            "lat": 36.84681,
            "lon": -76.28522
          }
        },
        {
          "facility": "National Clinical Research, Inc",
          "city": "Richmond",
          "state": "Virginia",
          "zip": "23294",
          "country": "United States",
          "geoPoint": {
            "lat": 37.55376,
            "lon": -77.46026
          }
        },
        {
          "facility": "Northwest Clinical Research Center",
          "city": "Bellevue",
          "state": "Washington",
          "zip": "98007",
          "country": "United States",
          "geoPoint": {
            "lat": 47.61038,
            "lon": -122.20068
          }
        },
        {
          "facility": "EvergreenHealth Medical Center",
          "city": "Kirkland",
          "state": "Washington",
          "zip": "98034",
          "country": "United States",
          "geoPoint": {
            "lat": 47.68149,
            "lon": -122.20874
          }
        },
        {
          "facility": "University of Washington - Harborview Medical Center",
          "city": "Seattle",
          "state": "Washington",
          "zip": "98104",
          "country": "United States",
          "geoPoint": {
            "lat": 47.60621,
            "lon": -122.33207
          }
        },
        {
          "facility": "Kingfisher Cooperative",
          "city": "Spokane",
          "state": "Washington",
          "zip": "99201",
          "country": "United States",
          "geoPoint": {
            "lat": 47.65966,
            "lon": -117.42908
          }
        },
        {
          "facility": "Universal Research Group",
          "city": "Tacoma",
          "state": "Washington",
          "zip": "98405",
          "country": "United States",
          "geoPoint": {
            "lat": 47.25288,
            "lon": -122.44429
          }
        },
        {
          "facility": "Central Coast Neurosciences Research",
          "city": "Erina",
          "state": "New South Wales",
          "zip": "2250",
          "country": "Australia",
          "geoPoint": {
            "lat": -33.43218,
            "lon": 151.38972
          }
        },
        {
          "facility": "St Vincent's Hospital",
          "city": "Sydney",
          "state": "New South Wales",
          "zip": "2010",
          "country": "Australia",
          "geoPoint": {
            "lat": -33.86785,
            "lon": 151.20732
          }
        },
        {
          "facility": "HammondCare Greenwich Hospital",
          "city": "Sydney",
          "state": "New South Wales",
          "zip": "2065",
          "country": "Australia",
          "geoPoint": {
            "lat": -33.86785,
            "lon": 151.20732
          }
        },
        {
          "facility": "KARA Institute for Neurological Diseases",
          "city": "Sydney",
          "state": "New South Wales",
          "zip": "2113",
          "country": "Australia",
          "geoPoint": {
            "lat": -33.86785,
            "lon": 151.20732
          }
        },
        {
          "facility": "NeuroCentrix",
          "city": "Carlton",
          "state": "Victoria",
          "zip": "3053",
          "country": "Australia",
          "geoPoint": {
            "lat": -37.8,
            "lon": 144.96667
          }
        },
        {
          "facility": "Delmont Private Hospital",
          "city": "Glen Iris",
          "state": "Victoria",
          "zip": "3146",
          "country": "Australia",
          "geoPoint": {
            "lat": -37.86667,
            "lon": 145.06667
          }
        },
        {
          "facility": "HammondCare",
          "city": "Malvern",
          "state": "Victoria",
          "zip": "3144",
          "country": "Australia",
          "geoPoint": {
            "lat": -37.86259,
            "lon": 145.02811
          }
        },
        {
          "facility": "The Alfred Hospital",
          "city": "Melbourne",
          "state": "Victoria",
          "zip": "3004",
          "country": "Australia",
          "geoPoint": {
            "lat": -37.814,
            "lon": 144.96332
          }
        },
        {
          "facility": "The Royal Melbourne Hospital",
          "city": "Parkville",
          "state": "Victoria",
          "zip": "3050",
          "country": "Australia",
          "geoPoint": {
            "lat": -37.78333,
            "lon": 144.95
          }
        },
        {
          "facility": "OCT Research ULC",
          "city": "Kelowna",
          "state": "British Columbia",
          "zip": "V1Y 1Z9",
          "country": "Canada",
          "geoPoint": {
            "lat": 49.88307,
            "lon": -119.48568
          }
        },
        {
          "facility": "True North Clinical Research",
          "city": "Halifax",
          "state": "Nova Scotia",
          "zip": "B3S 1N2",
          "country": "Canada",
          "geoPoint": {
            "lat": 44.64269,
            "lon": -63.57688
          }
        },
        {
          "facility": "True North Clinical Research",
          "city": "New Minas",
          "state": "Nova Scotia",
          "zip": "B4N 3R7",
          "country": "Canada",
          "geoPoint": {
            "lat": 45.0691,
            "lon": -64.46958
          }
        },
        {
          "facility": "SKDS Research Inc.",
          "city": "Newmarket",
          "state": "Ontario",
          "zip": "L3Y 5G8",
          "country": "Canada",
          "geoPoint": {
            "lat": 44.05011,
            "lon": -79.46631
          }
        },
        {
          "facility": "Ottawa Memory Clinic",
          "city": "Ottawa",
          "state": "Ontario",
          "zip": "K1Z 1G3",
          "country": "Canada",
          "geoPoint": {
            "lat": 45.41117,
            "lon": -75.69812
          }
        },
        {
          "facility": "BruyÃ¨re Research Institute",
          "city": "Ottawa",
          "state": "Ontario",
          "country": "Canada",
          "geoPoint": {
            "lat": 45.41117,
            "lon": -75.69812
          }
        },
        {
          "facility": "Kawartha Centre - Redefining Healthy Aging",
          "city": "Peterborough",
          "state": "Ontario",
          "zip": "K9H 2P4",
          "country": "Canada",
          "geoPoint": {
            "lat": 44.30012,
            "lon": -78.31623
          }
        },
        {
          "facility": "Bluewater Clinical Research Group Inc.",
          "city": "Sarnia",
          "state": "Ontario",
          "zip": "N7T 4X3",
          "country": "Canada",
          "geoPoint": {
            "lat": 42.97866,
            "lon": -82.40407
          }
        },
        {
          "facility": "Toronto Memory Program",
          "city": "Toronto",
          "state": "Ontario",
          "zip": "M3B 2S7",
          "country": "Canada",
          "geoPoint": {
            "lat": 43.70643,
            "lon": -79.39864
          }
        },
        {
          "facility": "Sunnybrook Health Sciences Centre",
          "city": "Toronto",
          "state": "Ontario",
          "zip": "M4N 3M5",
          "country": "Canada",
          "geoPoint": {
            "lat": 43.70643,
            "lon": -79.39864
          }
        },
        {
          "facility": "Baycrest Health Sciences",
          "city": "Toronto",
          "state": "Ontario",
          "zip": "M6A 2E1",
          "country": "Canada",
          "geoPoint": {
            "lat": 43.70643,
            "lon": -79.39864
          }
        },
        {
          "facility": "Clinique de la MÃ©moire de l'Outaouais",
          "city": "Gatineau",
          "state": "Quebec",
          "zip": "K1Z 1G3",
          "country": "Canada",
          "geoPoint": {
            "lat": 45.47723,
            "lon": -75.70164
          }
        },
        {
          "facility": "MoCA Research and Innovation Inc.",
          "city": "Greenfield Park",
          "state": "Quebec",
          "zip": "J4V 2J2",
          "country": "Canada",
          "geoPoint": {
            "lat": 45.48649,
            "lon": -73.46223
          }
        },
        {
          "facility": "Q&T Research Sherbrooke Inc.",
          "city": "Sherbrooke",
          "state": "Quebec",
          "zip": "J1J 2G2",
          "country": "Canada",
          "geoPoint": {
            "lat": 45.40008,
            "lon": -71.89908
          }
        },
        {
          "facility": "Diex Recherche Sherbrooke Inc.",
          "city": "Sherbrooke",
          "state": "Quebec",
          "zip": "J1L 0H8",
          "country": "Canada",
          "geoPoint": {
            "lat": 45.40008,
            "lon": -71.89908
          }
        },
        {
          "facility": "Alpha Recherche Clinique",
          "city": "QuÃ©bec",
          "zip": "G2J 0C4",
          "country": "Canada",
          "geoPoint": {
            "lat": 46.81228,
            "lon": -71.21454
          }
        },
        {
          "facility": "ALPHA Recherche Clinique",
          "city": "QuÃ©bec",
          "zip": "G3K 2P8",
          "country": "Canada",
          "geoPoint": {
            "lat": 46.81228,
            "lon": -71.21454
          }
        },
        {
          "facility": "Clinline Services",
          "city": "Hostivice",
          "state": "Central Bohemia",
          "zip": "253 01",
          "country": "Czechia",
          "geoPoint": {
            "lat": 50.08158,
            "lon": 14.25856
          }
        },
        {
          "facility": "Brain-Soul Therapy",
          "city": "Kladno",
          "state": "Central Bohemia",
          "zip": "272 01",
          "country": "Czechia",
          "geoPoint": {
            "lat": 50.14734,
            "lon": 14.10285
          }
        },
        {
          "facility": "A-Shine",
          "city": "Pilsen",
          "state": "PlzeÅˆ-mÄ›sto",
          "zip": "30100",
          "country": "Czechia",
          "geoPoint": {
            "lat": 49.74747,
            "lon": 13.37759
          }
        },
        {
          "facility": "Clintrial s.r.o.",
          "city": "Prague",
          "state": "Praha 10",
          "zip": "100 00",
          "country": "Czechia",
          "geoPoint": {
            "lat": 50.08804,
            "lon": 14.42076
          }
        },
        {
          "facility": "NeurologickÃ¡ Ambulance - Forbeli",
          "city": "Prague",
          "state": "Praha 6",
          "zip": "160 00",
          "country": "Czechia",
          "geoPoint": {
            "lat": 50.08804,
            "lon": 14.42076
          }
        },
        {
          "facility": "Neuropsychiatrie",
          "city": "Prague",
          "state": "Praha 6",
          "zip": "160 00",
          "country": "Czechia",
          "geoPoint": {
            "lat": 50.08804,
            "lon": 14.42076
          }
        },
        {
          "facility": "Nagoya Ekisaikai Hospital",
          "city": "Nagoya",
          "state": "Aichi-ken",
          "zip": "454-8502",
          "country": "Japan",
          "geoPoint": {
            "lat": 35.18147,
            "lon": 136.90641
          }
        },
        {
          "facility": "Chubu Rosai Hospital",
          "city": "Nagoya",
          "state": "Aichi-ken",
          "zip": "455-8530",
          "country": "Japan",
          "geoPoint": {
            "lat": 35.18147,
            "lon": 136.90641
          }
        },
        {
          "facility": "Kojunkai Daido Clinic",
          "city": "Nagoya",
          "state": "Aichi-ken",
          "zip": "4570818",
          "country": "Japan",
          "geoPoint": {
            "lat": 35.18147,
            "lon": 136.90641
          }
        },
        {
          "facility": "National Center for Geriatrics and Gerontology",
          "city": "ÅŒbu",
          "state": "Aichi-ken",
          "zip": "474-8511",
          "country": "Japan",
          "geoPoint": {
            "lat": 35.01756,
            "lon": 136.94947
          }
        },
        {
          "facility": "Inage Neurology and Memory Clinic",
          "city": "Inage",
          "state": "Chiba",
          "zip": "263-0043",
          "country": "Japan",
          "geoPoint": {
            "lat": 35.6381,
            "lon": 140.08219
          }
        },
        {
          "facility": "Matsui e-clinic",
          "city": "Akashi",
          "state": "HyÅgo",
          "zip": "673-0891",
          "country": "Japan",
          "geoPoint": {
            "lat": 34.65524,
            "lon": 135.00687
          }
        },
        {
          "facility": "Himeji Central Hospital Affiliated Clinic",
          "city": "Himeji",
          "state": "HyÅgo",
          "zip": "672-8043",
          "country": "Japan",
          "geoPoint": {
            "lat": 34.81667,
            "lon": 134.7
          }
        },
        {
          "facility": "Kobe University Hospital",
          "city": "Kobe",
          "state": "HyÅgo",
          "zip": "650-0017",
          "country": "Japan",
          "geoPoint": {
            "lat": 34.6913,
            "lon": 135.183
          }
        },
        {
          "facility": "Kobe City Medical Center General Hospital",
          "city": "Kobe",
          "state": "HyÅgo",
          "zip": "650-0047",
          "country": "Japan",
          "geoPoint": {
            "lat": 34.6913,
            "lon": 135.183
          }
        },
        {
          "facility": "Kakigi Dementia Happiness Clinic",
          "city": "Kobe",
          "state": "HyÅgo",
          "zip": "657-0825",
          "country": "Japan",
          "geoPoint": {
            "lat": 34.6913,
            "lon": 135.183
          }
        },
        {
          "facility": "Tokyo Medical University Ibaraki Medical Center",
          "city": "Inashiki",
          "state": "Ibaraki",
          "zip": "300-0332",
          "country": "Japan",
          "geoPoint": {
            "lat": 35.95633,
            "lon": 140.32356
          }
        },
        {
          "facility": "Memory Clinic Toride",
          "city": "Toride",
          "state": "Ibaraki",
          "zip": "302-0004",
          "country": "Japan",
          "geoPoint": {
            "lat": 35.9,
            "lon": 140.08333
          }
        },
        {
          "facility": "Yokohama City Minato Red Cross Hospital",
          "city": "Yokohama",
          "state": "Kanagawa",
          "zip": "231-0801",
          "country": "Japan",
          "geoPoint": {
            "lat": 35.43333,
            "lon": 139.65
          }
        },
        {
          "facility": "Oita University Hospital",
          "city": "Yufu",
          "state": "Oita Prefecture",
          "zip": "879-5593",
          "country": "Japan",
          "geoPoint": {
            "lat": 33.1956,
            "lon": 131.37829
          }
        },
        {
          "facility": "Katayama Medical Clinic",
          "city": "Kurashiki",
          "state": "Okayama-ken",
          "zip": "710-0813",
          "country": "Japan",
          "geoPoint": {
            "lat": 34.58333,
            "lon": 133.76667
          }
        },
        {
          "facility": "Honmachi Clinic",
          "city": "Ikeda",
          "state": "Osaka",
          "zip": "563-0058",
          "country": "Japan",
          "geoPoint": {
            "lat": 34.82208,
            "lon": 135.4298
          }
        },
        {
          "facility": "Takatsuki General Hospital",
          "city": "Takatsuki",
          "state": "Osaka",
          "zip": "569-1192",
          "country": "Japan",
          "geoPoint": {
            "lat": 34.84833,
            "lon": 135.61678
          }
        },
        {
          "facility": "Medical Corporation Chiseikai Tokyo Center Clinic",
          "city": "Chuo-ku",
          "state": "Tokyo",
          "zip": "103-0028",
          "country": "Japan"
        },
        {
          "facility": "Moriyama Neuro Center Hospital",
          "city": "Edogawa-ku",
          "state": "Tokyo",
          "zip": "134-0088",
          "country": "Japan"
        },
        {
          "facility": "P-One Clinic",
          "city": "HachiÅji",
          "state": "Tokyo",
          "zip": "192-0071",
          "country": "Japan",
          "geoPoint": {
            "lat": 35.65583,
            "lon": 139.32389
          }
        },
        {
          "facility": "Clinical Research Hospital Tokyo",
          "city": "Shinjuku-ku",
          "state": "Tokyo",
          "zip": "162-0053",
          "country": "Japan"
        },
        {
          "facility": "Tokyo Metro Bokutoh Hospital",
          "city": "Sumida-ku",
          "state": "Tokyo",
          "zip": "130-0022",
          "country": "Japan"
        },
        {
          "facility": "Hiroshima Neurology Clinic",
          "city": "Hiroshima",
          "zip": "732-0822",
          "country": "Japan",
          "geoPoint": {
            "lat": 34.4,
            "lon": 132.45
          }
        },
        {
          "facility": "Koseikai Takeda Hospital",
          "city": "Kyoto",
          "zip": "600-8558",
          "country": "Japan",
          "geoPoint": {
            "lat": 35.02107,
            "lon": 135.75385
          }
        },
        {
          "facility": "Ishikawa Clinic",
          "city": "Kyoto",
          "zip": "606-0851",
          "country": "Japan",
          "geoPoint": {
            "lat": 35.02107,
            "lon": 135.75385
          }
        },
        {
          "facility": "National hospital Organization Utano National Hospital",
          "city": "Kyoto",
          "zip": "616-8255",
          "country": "Japan",
          "geoPoint": {
            "lat": 35.02107,
            "lon": 135.75385
          }
        },
        {
          "facility": "Oita Prefectural Hospital",
          "city": "ÅŒita",
          "zip": "870-0855",
          "country": "Japan",
          "geoPoint": {
            "lat": 33.23333,
            "lon": 131.6
          }
        },
        {
          "facility": "Itsuki Hospital",
          "city": "Tokushima",
          "zip": "770-0852",
          "country": "Japan",
          "geoPoint": {
            "lat": 34.06667,
            "lon": 134.56667
          }
        },
        {
          "facility": "Tokyo Asbo Clinic",
          "city": "Tokyo",
          "zip": "104-0031",
          "country": "Japan",
          "geoPoint": {
            "lat": 35.6895,
            "lon": 139.69171
          }
        },
        {
          "facility": "Nippon Medical School Hospital",
          "city": "Tokyo",
          "zip": "113-8603",
          "country": "Japan",
          "geoPoint": {
            "lat": 35.6895,
            "lon": 139.69171
          }
        },
        {
          "facility": "Makita General Hospital",
          "city": "Tokyo",
          "zip": "143-0016",
          "country": "Japan",
          "geoPoint": {
            "lat": 35.6895,
            "lon": 139.69171
          }
        },
        {
          "facility": "Brain Research Center Den Bosch B.V.",
          "city": "'s-Hertogenbosch",
          "state": "North Brabant",
          "zip": "5223 LA",
          "country": "Netherlands",
          "geoPoint": {
            "lat": 51.69917,
            "lon": 5.30417
          }
        },
        {
          "facility": "Brain Research Center",
          "city": "Amsterdam",
          "state": "North Holland",
          "zip": "1081 GN",
          "country": "Netherlands",
          "geoPoint": {
            "lat": 52.37403,
            "lon": 4.88969
          }
        },
        {
          "facility": "Brain Research Center Zwolle",
          "city": "Zwolle",
          "state": "Overijssel",
          "zip": "8025 AZ",
          "country": "Netherlands",
          "geoPoint": {
            "lat": 52.5125,
            "lon": 6.09444
          }
        },
        {
          "facility": "QPS Netherlands B.V",
          "city": "Leeuwarden",
          "state": "Provincie Friesland",
          "zip": "8934 AD",
          "country": "Netherlands",
          "geoPoint": {
            "lat": 53.20271,
            "lon": 5.80973
          }
        },
        {
          "facility": "Nzoz Neuro-Kard Ilkowski i Partnerzy SPL",
          "city": "Poznan",
          "state": "Greater Poland Voivodeship",
          "zip": "61-853",
          "country": "Poland",
          "geoPoint": {
            "lat": 52.40692,
            "lon": 16.92993
          }
        },
        {
          "facility": "Centrum Medyczne NEUROMED",
          "city": "Bydgoszcz",
          "state": "Kuyavian-Pomeranian Voivodeship",
          "zip": "85-163",
          "country": "Poland",
          "geoPoint": {
            "lat": 53.1235,
            "lon": 18.00762
          }
        },
        {
          "facility": "Diamond Clinic",
          "city": "Krakow",
          "state": "Lesser Poland Voivodeship",
          "zip": "31-559",
          "country": "Poland",
          "geoPoint": {
            "lat": 50.06143,
            "lon": 19.93658
          }
        },
        {
          "facility": "OÅ›rodek Badawczo Naukowo Dydaktyczny ChorÃ³b OtÄ™piennych Im KsiÄ™dza Henryka KardynaÅ‚a Gulbinowicza Uniwersy -T",
          "city": "Åšcinawa",
          "state": "Lower Silesian Voivodeship",
          "zip": "59-330",
          "country": "Poland",
          "geoPoint": {
            "lat": 51.41626,
            "lon": 16.4251
          }
        },
        {
          "facility": "Wroclawskie Centrum Alzheimerowskie",
          "city": "Wroclaw",
          "state": "Lower Silesian Voivodeship",
          "zip": "53-659",
          "country": "Poland",
          "geoPoint": {
            "lat": 51.10286,
            "lon": 17.03006
          }
        },
        {
          "facility": "Private Practice - Dr. Urszula Chyrchel- Paszkiewicz",
          "city": "Lublin",
          "state": "Lublin Voivodeship",
          "zip": "20-093",
          "country": "Poland",
          "geoPoint": {
            "lat": 51.25058,
            "lon": 22.57009
          }
        },
        {
          "facility": "FutureMeds Warszawa Centrum",
          "city": "Warsaw",
          "state": "Masovian Voivodeship",
          "zip": "00-215",
          "country": "Poland",
          "geoPoint": {
            "lat": 52.22977,
            "lon": 21.01178
          }
        },
        {
          "facility": "Centrum Medyczne NeuroProtect",
          "city": "Warsawawa",
          "state": "Masovian Voivodeship",
          "zip": "01-684",
          "country": "Poland"
        },
        {
          "facility": "KLIMED Marek Klimkiewicz",
          "city": "Bialystok",
          "state": "Podlaskie Voivodeship",
          "zip": "15-704",
          "country": "Poland",
          "geoPoint": {
            "lat": 53.13333,
            "lon": 23.16433
          }
        },
        {
          "facility": "Podlaskie Centrum Psychogeriatrii",
          "city": "Bialystok",
          "state": "Podlaskie Voivodeship",
          "zip": "15-756",
          "country": "Poland",
          "geoPoint": {
            "lat": 53.13333,
            "lon": 23.16433
          }
        },
        {
          "facility": "Centrum Badan Klinicznych PI-House sp. z o.o.",
          "city": "Gdansk",
          "state": "Pomeranian Voivodeship",
          "zip": "80-546",
          "country": "Poland",
          "geoPoint": {
            "lat": 54.35227,
            "lon": 18.64912
          }
        },
        {
          "facility": "Centrum Medyczne SENIOR",
          "city": "Sopot",
          "state": "Pomeranian Voivodeship",
          "zip": "81-855",
          "country": "Poland",
          "geoPoint": {
            "lat": 54.4418,
            "lon": 18.56003
          }
        },
        {
          "facility": "Klinika Neuro-Care",
          "city": "Katowice",
          "state": "Silesian Voivodeship",
          "zip": "40-749",
          "country": "Poland",
          "geoPoint": {
            "lat": 50.2597,
            "lon": 19.02173
          }
        },
        {
          "facility": "Centrum Medyczne Euromedis",
          "city": "Szczecin",
          "state": "West Pomeranian Voivodeship",
          "zip": "70-111",
          "country": "Poland",
          "geoPoint": {
            "lat": 53.42894,
            "lon": 14.55302
          }
        },
        {
          "facility": "SCB Research Center",
          "city": "BayamÃ³n",
          "zip": "00961",
          "country": "Puerto Rico",
          "geoPoint": {
            "lat": 18.39856,
            "lon": -66.15572
          }
        },
        {
          "facility": "INSPIRA Clinical Research",
          "city": "San Juan",
          "zip": "00918",
          "country": "Puerto Rico",
          "geoPoint": {
            "lat": 18.46633,
            "lon": -66.10572
          }
        },
        {
          "facility": "Instituto De Neurologia Dra. Ivonne Fraga",
          "city": "San Juan",
          "zip": "00918",
          "country": "Puerto Rico",
          "geoPoint": {
            "lat": 18.46633,
            "lon": -66.10572
          }
        },
        {
          "facility": "Barbara Diaz-Hernandez MD Research, Inc.",
          "city": "San Juan",
          "zip": "00926",
          "country": "Puerto Rico",
          "geoPoint": {
            "lat": 18.46633,
            "lon": -66.10572
          }
        },
        {
          "facility": "Glasgow Memory Clinic",
          "city": "Motherwell",
          "state": "Great Britain",
          "zip": "ML1 4UF",
          "country": "United Kingdom",
          "geoPoint": {
            "lat": 55.78924,
            "lon": -3.99187
          }
        },
        {
          "facility": "Re:Cognition Health - London",
          "city": "London",
          "state": "London, City of",
          "zip": "W1G 9JF",
          "country": "United Kingdom",
          "geoPoint": {
            "lat": 51.50853,
            "lon": -0.12574
          }
        },
        {
          "facility": "Re:Cognition Health Guildford",
          "city": "Guildford",
          "state": "Surrey",
          "zip": "GU2 7YD",
          "country": "United Kingdom",
          "geoPoint": {
            "lat": 51.23536,
            "lon": -0.57427
          }
        },
        {
          "facility": "Re:Cognition Health - Birmingham",
          "city": "Birmingham",
          "zip": "B16 8LT",
          "country": "United Kingdom",
          "geoPoint": {
            "lat": 52.48142,
            "lon": -1.89983
          }
        }
      ]
    },
    "referencesModule": {
      "references": [
        {
          "pmid": "41330788",
          "type": "DERIVED",
          "citation": "Zimmer JA, Sims JR, Evans CD, Nery ESM, Wang H, Wessels AM, Tronchin G, Sato S, Raket LL, Andersen SW, Sapin C, Paget MA, Gueorguieva I, Ardayfio P, Khanna R, Brooks DA, Matthews BR, Mintun MA; Alzheimer's Disease Neuroimaging Initiative. Donanemab in early symptomatic Alzheimer's disease: results from the TRAILBLAZER-ALZ 2 long-term extension. J Prev Alzheimers Dis. 2025 Dec 1:100446. doi: 10.1016/j.tjpad.2025.100446. Online ahead of print."
        },
        {
          "pmid": "41082199",
          "type": "DERIVED",
          "citation": "Lu M, Kim MJ, Collins EC, Shcherbinin S, Ellinwood AK, Yokoi Y, Brooks DA, Hansson O, Knopman DS, Sims JR, Mintun MA. Posttreatment Amyloid Levels and Clinical Outcomes Following Donanemab for Early Symptomatic Alzheimer Disease: A Secondary Analysis of the TRAILBLAZER-ALZ 2 Randomized Clinical Trial. JAMA Neurol. 2025 Dec 1;82(12):1251-1256. doi: 10.1001/jamaneurol.2025.3869."
        },
        {
          "pmid": "40603145",
          "type": "DERIVED",
          "citation": "Chandler JM, Lansdall CJ, Ye W, McDougall F, Belger M, Toth B, Mi X, Sink KM, Atkins AS. The Alzheimer's Disease Cooperative Study - Activities of Daily Living dependence score: revision and validation of an algorithm evaluating patient dependence across the spectrum of AD severity. J Prev Alzheimers Dis. 2025 Sep;12(8):100261. doi: 10.1016/j.tjpad.2025.100261. Epub 2025 Jul 1."
        },