{
  "protocolSection": {
    "identificationModule": {
      "nctId": "NCT04777396",
      "orgStudyIdInfo": {
        "id": "NN6535-4730"
      },
      "secondaryIdInfos": [
        {
          "id": "U1111-1259-2929",
          "type": "OTHER",
          "domain": "World Health Organization (WHO)"
        },
        {
          "id": "2023-506919-18",
          "type": "OTHER",
          "domain": "European Medical Agency (EMA)"
        }
      ],
      "organization": {
        "fullName": "Novo Nordisk A/S",
        "class": "INDUSTRY"
      },
      "briefTitle": "A Research Study Investigating Semaglutide in People With Early Alzheimer's Disease (EVOKE)",
      "officialTitle": "A Randomised Double-blind Placebo-controlled Clinical Trial Investigating the Effect and Safety of Oral Semaglutide in Subjects With Early Alzheimer´s Disease (EVOKE)",
      "acronym": "EVOKE"
    },
    "statusModule": {
      "statusVerifiedDate": "2025-11",
      "overallStatus": "ACTIVE_NOT_RECRUITING",
      "expandedAccessInfo": {
        "hasExpandedAccess": false
      },
      "startDateStruct": {
        "date": "2021-05-18",
        "type": "ACTUAL"
      },
      "primaryCompletionDateStruct": {
        "date": "2025-09-16",
        "type": "ACTUAL"
      },
      "completionDateStruct": {
        "date": "2026-10-23",
        "type": "ESTIMATED"
      },
      "studyFirstSubmitDate": "2021-02-26",
      "studyFirstSubmitQcDate": "2021-02-26",
      "studyFirstPostDateStruct": {
        "date": "2021-03-02",
        "type": "ACTUAL"
      },
      "lastUpdateSubmitDate": "2025-11-29",
      "lastUpdatePostDateStruct": {
        "date": "2025-12-02",
        "type": "ESTIMATED"
      }
    },
    "sponsorCollaboratorsModule": {
      "responsibleParty": {
        "type": "SPONSOR"
      },
      "leadSponsor": {
        "name": "Novo Nordisk A/S",
        "class": "INDUSTRY"
      }
    },
    "oversightModule": {
      "oversightHasDmc": true,
      "isFdaRegulatedDrug": true,
      "isFdaRegulatedDevice": false
    },
    "descriptionModule": {
      "briefSummary": "This study is done to find out whether the medicine, semaglutide, has a positive effect on early Alzheimer's disease.\n\nParticipants will either get semaglutide or placebo (a \"dummy\" medicine which does not contain any study medicine) - which treatment participants get is decided by an equal chance.\n\nThe study will last for up to 173 weeks (about 3 years and 4 months). Participants will have 17 clinic visits and 1 phone call with the study doctor. The study includes various tests and scans. At 10 of the clinic visits participants will have blood samples taken.\n\nParticipants must have a study partner, who is willing to take part in the study.\n\nWomen cannot take part if pregnant, breastfeeding or plan to become pregnant during the study period.\n\nA cerebrospinal fluid (CSF) sub-study will be performed as a part of the study. The sub-study will be performed on a selection of sites based on their experience with CSF sampling and willingness to participate in this sub-study. The endpoints related to this sub-study are exploratory only."
    },
    "conditionsModule": {
      "conditions": [
        "Early Alzheimer's Disease"
      ]
    },
    "designModule": {
      "studyType": "INTERVENTIONAL",
      "phases": [
        "PHASE3"
      ],
      "designInfo": {
        "allocation": "RANDOMIZED",
        "interventionModel": "PARALLEL",
        "primaryPurpose": "TREATMENT",
        "maskingInfo": {
          "masking": "QUADRUPLE",
          "maskingDescription": "Sponsor staff involved in the clinical trial is masked according to company standard procedures.",
          "whoMasked": [
            "PARTICIPANT",
            "CARE_PROVIDER",
            "INVESTIGATOR",
            "OUTCOMES_ASSESSOR"
          ]
        }
      },
      "enrollmentInfo": {
        "count": 1840,
        "type": "ESTIMATED"
      }
    },
    "armsInterventionsModule": {
      "armGroups": [
        {
          "label": "Oral Semaglutide",
          "type": "EXPERIMENTAL",
          "description": "Participants are given oral semaglutide once daily",
          "interventionNames": [
            "Drug: Semagludtide"
          ]
        },
        {
          "label": "Placebo (semagludtide)",
          "type": "PLACEBO_COMPARATOR",
          "description": "Participants are given oral placebo once daily",
          "interventionNames": [
            "Drug: Placebo (semaglutide)"
          ]
        }
      ],
      "interventions": [
        {
          "type": "DRUG",
          "name": "Semagludtide",
          "description": "Oral semaglutide once-daily, dose gradually increased to 14 mg. The study will last for up to 173 weeks",
          "armGroupLabels": [
            "Oral Semaglutide"
          ]
        },
        {
          "type": "DRUG",
          "name": "Placebo (semaglutide)",
          "description": "Oral placebo (semaglutide) once-daily, The study will last for up to 173 weeks",
          "armGroupLabels": [
            "Placebo (semagludtide)"
          ]
        }
      ]
    },
    "outcomesModule": {
      "primaryOutcomes": [
        {
          "measure": "Change in the Clinical Dementia Rating - Sum of Boxes (CDR-SB) score",
          "description": "Score on scale (0 to 18)\n\nMeasures the impact of cognitive decline on daily function using the following six domains commonly affected in Alzheimer's disease:\n\n* Cognitive domains: memory, orientation, and judgement and problem solving\n* Function domains: community affairs, home and hobbies, and personal care Based on clinical information obtained from the subject and informant, an individual box score ranging from 0 to 3 is determined that represents \"none\" to \"severe\" impairment for each of the six domains.\n\nThe CDR-Sum of Boxes (CDR-SB) score will be derived by adding the individual scores of the six domains at a given time point. The total CDR-SB score ranges from 0 to 18 with higher scores representing greater impairment.",
          "timeFrame": "From baseline (week 0) to week 104"
        }
      ],
      "secondaryOutcomes": [
        {
          "measure": "Main Phase: Change in the 24-item Alzheimer's Disease Cooperative Study Activities of Daily Living Scale for Mild Cognitive Impairment (ADCS-ADL-MCI) score",
          "description": "Score on scale (0 to 53) An interview-based assessment of information provided by the study partner (informant). The total scores based on 18 items on the scale range from 0 to 53 with lower scores representing greater impairment.",
          "timeFrame": "From baseline (week 0) to week 104"
        },
        {
          "measure": "Extension Phase:Change in the ADCS-ADL-MCI (Alzheimer's Disease Cooperative Study-Activities of Daily Living Inventory-Mild Cognitive Impairment ) score",
          "description": "Score on scale (0 to 53) An interview-based assessment of information provided by the study partner (informant). The total scores based on 18 items on the scale range from 0 to 53 with lower scores representing greater impairment.",
          "timeFrame": "From baseline (week 0) to week 156"
        },
        {
          "measure": "Main Phase: Time to progression to Clinical Dementia Rating (CDR) global score greater than or equal to (≥) 1.0 among patients with CDR global score equal to (=) 0.5 at baseline",
          "description": "Week(s)",
          "timeFrame": "From baseline (week 0) up to week 156"
        },
        {
          "measure": "Extension Phase: Time to progression to Clinical Dementia Rating (CDR) global score greater than or equal to (≥) 1.0 among patients with CDR global score equal to (=) 0.5 at baseline",
          "description": "Week(s)",
          "timeFrame": "From baseline (week 0) to week 156"
        },
        {
          "measure": "Main Phase: Change in the 13-item Alzheimer's Disease Assessment Scale - Cognitive Subscale (ADAS-Cog-13) score",
          "description": "Score on scale (0 to 85) ADAS-Cog-13 measures the severity of cognitive impairment in various domains including memory, language, orientation, praxis and executive function. The ADAS-Cog-13 is composed of tasks in the original 11-item ADAS-Cog as well as delayed word recall and number cancellation items. The total scores on the scale range from 0 to 85 with higher scores representing greater impairment.",
          "timeFrame": "From baseline (week 0) to week 104"
        },
        {
          "measure": "Extension Phase: Change in the 13-item Alzheimer's Disease Assessment Scale - Cognitive Subscale (ADAS-Cog-13) score",
          "description": "Score on scale (0 to 85) ADAS-Cog-13 measures the severity of cognitive impairment in various domains including memory, language, orientation, praxis and executive function. The ADAS-Cog-13 is composed of tasks in the original 11-item ADAS-Cog as well as delayed word recall and number cancellation items. The total scores on the scale range from 0 to 85 with higher scores representing greater impairment.",
          "timeFrame": "From baseline (week 0) to week 156"
        },
        {
          "measure": "Main Phase: Change in the Montreal Cognitive Assessment (MoCA) score",
          "description": "Score on scale (0 to 30) The MoCA is a brief assessment of cognitive abilities including orientation, short-term memory, clock-drawing test, executive function, language abilities, animal naming, attention and abstrac-tion. The assessment includes 8 domains of cognitive function with total scores ranging from 0 to 30 and lower scores indicating greater impairment.",
          "timeFrame": "From baseline (week 0) to week 104"
        },
        {
          "measure": "Extension Phase: Change in the Montreal Cognitive Assessment (MoCA) score",
          "description": "Score on scale (0 to 30) The MoCA is a brief assessment of cognitive abilities including orientation, short-term memory, clock-drawing test, executive function, language abilities, animal naming, attention and abstrac-tion. The assessment includes 8 domains of cognitive function with total scores ranging from 0 to 30 and lower scores indicating greater impairment.",
          "timeFrame": "From baseline (week 0) to week 156"
        },
        {
          "measure": "Main Phase: Change in the Alzheimer's Disease Composite Score (ADCOMS)",
          "description": "Score on scale (0 to 1.97) The ADCOMS is a composite clinical outcome comprising 4 items from the ADAS-Cog-13, 2 items from the MMSE and all 6 items from the CDR-SB.32 The total scores on the scale range from 0 to 1.97 with higher scores indicating greater impairment.",
          "timeFrame": "From baseline (week 0) to week 104"
        },
        {
          "measure": "Extension Phase: Change in the Alzheimer's Disease Composite Score (ADCOMS)",
          "description": "Score on scale (0 to 1.97) The ADCOMS is a composite clinical outcome comprising 4 items from the ADAS-Cog-13, 2 items from the MMSE and all 6 items from the CDR-SB.32 The total scores on the scale range from 0 to 1.97 with higher scores indicating greater impairment.",
          "timeFrame": "From baseline (week 0) to week 156"
        },
        {
          "measure": "Main Phase: Change in the Mini-Mental State Examination (MMSE) score",
          "description": "Score on scale (0 to 30) The MMSE measures orientation, attention, memory, language and visuo-spatial function. The total scores on the scale range from 0 to 30 with lower scores indicating greater impairment.",
          "timeFrame": "From baseline (week 0) to week 104"
        },
        {
          "measure": "Extension Phase: Change in the Mini-Mental State Examination (MMSE) score",
          "description": "Score on scale (0 to 30) The MMSE measures orientation, attention, memory, language and visuo-spatial function. The total scores on the scale range from 0 to 30 with lower scores indicating greater impairment.",
          "timeFrame": "From baseline (week 0) to week 156"
        },
        {
          "measure": "Main Phase: Time to progression in disease stage based on global CDR score",
          "description": "Week(s)",
          "timeFrame": "From baseline (week 0) up to week 156"
        },
        {
          "measure": "Extension Phase: Time to progression in disease stage based on global CDR score",
          "description": "Week(s)",
          "timeFrame": "From baseline (week 0) up to week 156"
        },
        {
          "measure": "Main Phase: Change in the composite Z-score based on the three outcome measures CDR-SB, ADCS-ADL-MCI, and ADAS-Cog-13",
          "description": "Score",
          "timeFrame": "From baseline (week 0) to week 104"
        },
        {
          "measure": "Extension Phase: Change in the composite Z-score based on the three outcome measures CDR-SB, ADCS-ADL-MCI, and ADAS-Cog-13",
          "description": "Score",
          "timeFrame": "From baseline (week 0) to week 156"
        },
        {
          "measure": "Main Phase: Change in the 10-item Neuropsychiatric Inventory (NPI) score",
          "description": "Score on scale (0 to 120) The 10-item scale assesses symptoms including delusions, hallucinations, agitation/aggression, dysphoria, anxiety, euphoria, apathy, disinhibition, irritability/lability and aberrant motor activity. For each domain the frequency (4-point scale) and severity (3-point scale) of symptoms is reported. The score for each domain is calculated by multiplying the frequency and severity score. The total 10-item NPI score is 0 to 120 with higher scores indicating a greater symptomatology.",
          "timeFrame": "From baseline (week 0) to week 104"
        },
        {
          "measure": "Extension Phase: Change in the 10-item Neuropsychiatric Inventory (NPI) score",
          "description": "Score on scale (0 to 120) The 10-item scale assesses symptoms including delusions, hallucinations, agitation/aggression, dysphoria, anxiety, euphoria, apathy, disinhibition, irritability/lability and aberrant motor activity. For each domain the frequency (4-point scale) and severity (3-point scale) of symptoms is reported. The score for each domain is calculated by multiplying the frequency and severity score. The total 10-item NPI score is 0 to 120 with higher scores indicating a greater symptomatology.",
          "timeFrame": "From baseline (week 0) to week 156"
        },
        {
          "measure": "Main Phase: Change in high sensitivity C-reactive protein level",
          "description": "Ratio to baseline",
          "timeFrame": "From baseline (week 0) to week 104"
        },
        {
          "measure": "Extension Phase: Change in high sensitivity C-reactive protein level",
          "description": "Ratio to baseline",
          "timeFrame": "From baseline (week 0) to week 156"
        },
        {
          "measure": "Main Phase: Number of treatment emergent adverse events (TEAEs)",
          "description": "Number of events",
          "timeFrame": "From baseline (week 0) up to week 156"
        },
        {
          "measure": "Extension Phase: Number of treatment emergent adverse events (TEAEs)",
          "description": "Number of events",
          "timeFrame": "From baseline (week 0) up to week 156"
        },
        {
          "measure": "Main Phase: Time to first occurrence of major adverse cardiovascular event (MACE) comprising non-fatal myocardial infarction, non-fatal stroke and all-cause death",
          "description": "Week(s)",
          "timeFrame": "From baseline (week 0) to week 104"
        },
        {
          "measure": "Extension Phase: Time to first occurrence of major adverse cardiovascular event (MACE) comprising non-fatal myocardial infarction, non-fatal stroke and all-cause death",
          "description": "Week(s)",
          "timeFrame": "From baseline (week 0) to week 156"
        },
        {
          "measure": "Main Phase: Time to first occurrence of stroke",
          "description": "Week(s",
          "timeFrame": "From baseline (week 0) to week 104"
        },
        {
          "measure": "Extension Phase: Time to first occurrence of stroke",
          "description": "Week(s",
          "timeFrame": "From baseline (week 0) to week 156"
        },
        {
          "measure": "Main Phase: Change in the EQ-5D-5L (proxy version) index score",
          "description": "Score The EQ-5D-5L descriptive system comprises mobility, self-care, usual activities, pain/discomfort and anxiety/depression with five response levels each (no problems, slight problems, moderate problems, severe problems, unable to /extreme problems). The EQ-5D-5L proxy version 1 (the study partner is asked to rate how he/she \\[the proxy\\] would rate the subject´s health) will be used in this trial.",
          "timeFrame": "From baseline (week 0) to week 104"
        },
        {
          "measure": "Extension Phase: Change in the EQ-5D-5L (proxy version) index score",
          "description": "Score The EQ-5D-5L descriptive system comprises mobility, self-care, usual activities, pain/discomfort and anxiety/depression with five response levels each (no problems, slight problems, moderate problems, severe problems, unable to /extreme problems). The EQ-5D-5L proxy version 1 (the study partner is asked to rate how he/she \\[the proxy\\] would rate the subject´s health) will be used in this trial.",
          "timeFrame": "From baseline (week 0) to week 156"
        },
        {
          "measure": "Extension phase: Change in the CDR-SB score",
          "description": "Score on scale (0 to 18)\n\nMeasures the impact of cognitive decline on daily function using the following six domains commonly affected in Alzheimer's disease:\n\n* Cognitive domains: memory, orientation, and judgement and problem solving\n* Function domains: community affairs, home and hobbies, and personal care Based on clinical information obtained from the subject and informant, an individual box score ranging from 0 to 3 is determined that represents \"none\" to \"severe\" impairment for each of the six domains.\n\nThe CDR-Sum of Boxes (CDR-SB) score will be derived by adding the individual scores of the six domains at a given time point. The total CDR-SB score ranges from 0 to 18 with higher scores representing greater impairment.",
          "timeFrame": "From baseline (week 0) to week 156"
        }
      ]
    },
    "eligibilityModule": {
      "eligibilityCriteria": "Inclusion Criteria:\n\n* Male or female, aged 55-85 years (both inclusive) at the time of signing informed consent.\n* MCI (mild cognitive impairment) or mild dementia of the Alzheimer's type according to the NIA-AA (National Institute of Aging-Alzheimer's Association) 2018 criteria.\n* CDR (Clinical Dementia Rating) global score of 0.5 and CDR of 0.5 or more in at least one of the three instrumental activities of daily living categories (personal care, home \\& hobbies, community affairs) Or CDR global score of 1.0\n* RBANS (Repeatable Battery for the Assessment of Neuropsychological Status) delayed memory index score of below or equal to 85\n* MMSE (Mini-Mental State Examination) greater than or equal to 22\n* Amyloid positivity established with either amyloid PET (positron emission tomography), CSF (cerebrospinal fluid) Aβ1-42 or CSF Aβ1-42/Aβ1-40 .\n* If receiving an approved Alzheimer's disease treatment (such as acetylcholinesterase inhibitors, memantine or aducanumab) the dose must have been stable for at least 3 months prior to screening and should not be changed during the trial unless medically necessary.\n\nExclusion Criteria:\n\n* Brain MRI (or CT) scan suggestive of clinically significant structural CNS disease confirmed by central read (e.g. cerebral large-vessel disease \\[large vessel (cortical) infarcts greater than 10 mm in diameter\\], prior macro-haemorrhage \\[greater than 1 cm\\^3\\], cerebral vascular malformations, cortical hemosiderosis, intracranial aneurism(s), intracranial tumours, changes suggestive of normal pressure hydrocephalus).\n* Brain MRI (magnetic resonance imaging) (or CT) scan suggestive of significant small vessel pathology confirmed by central read and defined as greater than1 lacunar infarct and/or ARWMC (age-related white matter changes) greater than 2, (WM (white matter) greater than 20 mm) in the deep white matter and periventricular regions.\n* Brain MRI (or CT) scan suggestive of strategic infarcts defined as bilateral thalamic lacunar infarcts and singular paramedian thalamic infarcts confirmed by central read.\n* Evidence of a relevant neurological disorder other than MCI or mild dementia of the Alzheimer's type at screening, including but not limited to Parkinson's disease, Lewy body disease, frontotemporal dementia of any type, Huntington's disease, amyotrophic lateral sclerosis, multiple sclerosis, systemic lupus erythematosus, progressive supranuclear palsy, neurosyphilis, HIV (human immunodeficiency virus), learning disability, intellectual disability, hypoxic cerebral damage, or significant head trauma with loss of consciousness that led to persistent cognitive deficits\n* Evidence of a clinically relevant or unstable psychiatric disorder, based on Diagnostic and Statistical Manual of Mental Disorders (DSM-5) criteria, including schizophrenia or other psychotic disorder, or bipolar disorder. A subject with a history of major depression who has not had an episode in the last 24 months before the day of screening and is considered in remission or whose depression is controlled with treatment can be included in the trial per investigator's judgement.",
      "healthyVolunteers": false,
      "sex": "ALL",
      "minimumAge": "55 Years",
      "maximumAge": "85 Years",
      "stdAges": [
        "ADULT",
        "OLDER_ADULT"
      ]
    },
    "contactsLocationsModule": {
      "overallOfficials": [
        {
          "name": "Clinical Transparency (Dept. 2834)",
          "affiliation": "Novo Nordisk A/S",
          "role": "STUDY_DIRECTOR"
        }
      ],
      "locations": [
        {
          "facility": "Banner Alzheimer's Institute",
          "city": "Phoenix",
          "state": "Arizona",
          "zip": "85006",
          "country": "United States",
          "geoPoint": {
            "lat": 33.44838,
            "lon": -112.07404
          }
        },
        {
          "facility": "Imaging Endpoints",
          "city": "Scottsdale",
          "state": "Arizona",
          "zip": "85258",
          "country": "United States",
          "geoPoint": {
            "lat": 33.50921,
            "lon": -111.89903
          }
        },
        {
          "facility": "Banner Sun Health Research Institute",
          "city": "Sun City",
          "state": "Arizona",
          "zip": "85351",
          "country": "United States",
          "geoPoint": {
            "lat": 33.59754,
            "lon": -112.27182
          }
        },
        {
          "facility": "Tucson Neuroscience Research",
          "city": "Tucson",
          "state": "Arizona",
          "zip": "85710",
          "country": "United States",
          "geoPoint": {
            "lat": 32.22174,
            "lon": -110.92648
          }
        },
        {
          "facility": "Advanced Research Center, Inc.",
          "city": "Anaheim",
          "state": "California",
          "zip": "92805",
          "country": "United States",
          "geoPoint": {
            "lat": 33.83529,
            "lon": -117.9145
          }
        },
        {
          "facility": "Fullerton Neurology and Headache Center",
          "city": "Fullerton",
          "state": "California",
          "zip": "92835",
          "country": "United States",
          "geoPoint": {
            "lat": 33.87029,
            "lon": -117.92534
          }
        },
        {
          "facility": "Pacific Research Network",
          "city": "Lemon Grove",
          "state": "California",
          "zip": "91945",
          "country": "United States",
          "geoPoint": {
            "lat": 32.74255,
            "lon": -117.03142
          }
        },
        {
          "facility": "Torrance Clin Res Inst, Inc.",
          "city": "Lomita",
          "state": "California",
          "zip": "90717",
          "country": "United States",
          "geoPoint": {
            "lat": 33.79224,
            "lon": -118.31507
          }
        },
        {
          "facility": "ASCLEPES Research Centers,",
          "city": "Long Beach",
          "state": "California",
          "zip": "90807",
          "country": "United States",
          "geoPoint": {
            "lat": 33.76696,
            "lon": -118.18923
          }
        },
        {
          "facility": "Cedars-Sinai Medical Center",
          "city": "Los Angeles",
          "state": "California",
          "zip": "90048",
          "country": "United States",
          "geoPoint": {
            "lat": 34.05223,
            "lon": -118.24368
          }
        },
        {
          "facility": "UCLA_Los Angeles",
          "city": "Los Angeles",
          "state": "California",
          "zip": "90095",
          "country": "United States",
          "geoPoint": {
            "lat": 34.05223,
            "lon": -118.24368
          }
        },
        {
          "facility": "Wr-Pri, Llc",
          "city": "Newport Beach",
          "state": "California",
          "zip": "92660",
          "country": "United States",
          "geoPoint": {
            "lat": 33.61891,
            "lon": -117.92895
          }
        },
        {
          "facility": "Well Care Medical Center",
          "city": "Panorama City",
          "state": "California",
          "zip": "91402",
          "country": "United States",
          "geoPoint": {
            "lat": 34.22473,
            "lon": -118.44981
          }
        },
        {
          "facility": "Cedars-Sinai Medical Center",
          "city": "Pasadena",
          "state": "California",
          "zip": "90048",
          "country": "United States",
          "geoPoint": {
            "lat": 34.14778,
            "lon": -118.14452
          }
        },
        {
          "facility": "Sharp Neurocog Res Ctr",
          "city": "San Diego",
          "state": "California",
          "zip": "92123",
          "country": "United States",
          "geoPoint": {
            "lat": 32.71571,
            "lon": -117.16472
          }
        },
        {
          "facility": "Syrentis Clinical Research",
          "city": "Santa Ana",
          "state": "California",
          "zip": "92705",
          "country": "United States",
          "geoPoint": {
            "lat": 33.74557,
            "lon": -117.86783
          }
        },
        {
          "facility": "Calfornia Neurosc Resrch Med",
          "city": "Sherman Oaks",
          "state": "California",
          "zip": "91403",
          "country": "United States",
          "geoPoint": {
            "lat": 34.15112,
            "lon": -118.44925
          }
        },
        {
          "facility": "Southern California Research LLC",
          "city": "Simi Valley",
          "state": "California",
          "zip": "93065",
          "country": "United States",
          "geoPoint": {
            "lat": 34.26945,
            "lon": -118.78148
          }
        },
        {
          "facility": "Mountain Neurological Research Center, Inc.",
          "city": "Basalt",
          "state": "Colorado",
          "zip": "81621",
          "country": "United States",
          "geoPoint": {
            "lat": 39.36887,
            "lon": -107.03282
          }
        },
        {
          "facility": "Denver Neurological Research",
          "city": "Denver",
          "state": "Colorado",
          "zip": "80210",
          "country": "United States",
          "geoPoint": {
            "lat": 39.73915,
            "lon": -104.9847
          }
        },
        {
          "facility": "Mile High Research Center",
          "city": "Denver",
          "state": "Colorado",
          "zip": "80218",
          "country": "United States",
          "geoPoint": {
            "lat": 39.73915,
            "lon": -104.9847
          }
        },
        {
          "facility": "Yale University",
          "city": "Fairfield",
          "state": "Connecticut",
          "zip": "06824",
          "country": "United States",
          "geoPoint": {
            "lat": 41.14121,
            "lon": -73.26373
          }
        },
        {
          "facility": "Topaz Clinical Research",
          "city": "Apopka",
          "state": "Florida",
          "zip": "32703",
          "country": "United States",
          "geoPoint": {
            "lat": 28.67617,
            "lon": -81.51186
          }
        },
        {
          "facility": "JEM Research Institute",
          "city": "Atlantis",
          "state": "Florida",
          "zip": "33462",
          "country": "United States",
          "geoPoint": {
            "lat": 26.5909,
            "lon": -80.10088
          }
        },
        {
          "facility": "Visionary Investigators Network",
          "city": "Aventura",
          "state": "Florida",
          "zip": "33180",
          "country": "United States",
          "geoPoint": {
            "lat": 25.95648,
            "lon": -80.13921
          }
        },
        {
          "facility": "K2 Medical Research - Winter Garden",
          "city": "Clermont",
          "state": "Florida",
          "zip": "34711",
          "country": "United States",
          "geoPoint": {
            "lat": 28.54944,
            "lon": -81.77285
          }
        },
        {
          "facility": "Brain Matters Research",
          "city": "Delray Beach",
          "state": "Florida",
          "zip": "33445",
          "country": "United States",
          "geoPoint": {
            "lat": 26.46146,
            "lon": -80.07282
          }
        },
        {
          "facility": "Integrity Clinical Research, LLC",
          "city": "Doral",
          "state": "Florida",
          "zip": "33122",
          "country": "United States",
          "geoPoint": {
            "lat": 25.81954,
            "lon": -80.35533
          }
        },
        {
          "facility": "Neuropsychiatric Research Cent",
          "city": "Fort Myers",
          "state": "Florida",
          "zip": "33912",
          "country": "United States",
          "geoPoint": {
            "lat": 26.62168,
            "lon": -81.84059
          }
        },
        {
          "facility": "Finlay Medical Research Group",
          "city": "Greenacres City",
          "state": "Florida",
          "zip": "33467",
          "country": "United States",
          "geoPoint": {
            "lat": 26.62368,
            "lon": -80.12532
          }
        },
        {
          "facility": "Indago Research & Health Center Inc.",
          "city": "Hialeah",
          "state": "Florida",
          "zip": "33012",
          "country": "United States",
          "geoPoint": {
            "lat": 25.8576,
            "lon": -80.27811
          }
        },
        {
          "facility": "Hlth Cr Family Rehab & Res Ctr",
          "city": "Hialeah",
          "state": "Florida",
          "zip": "33015",
          "country": "United States",
          "geoPoint": {
            "lat": 25.8576,
            "lon": -80.27811
          }
        },
        {
          "facility": "Galiz Research",
          "city": "Hialeah",
          "state": "Florida",
          "zip": "33016",
          "country": "United States",
          "geoPoint": {
            "lat": 25.8576,
            "lon": -80.27811
          }
        },
        {
          "facility": "K2 The Villages",
          "city": "Lady Lake",
          "state": "Florida",
          "zip": "32159",
          "country": "United States",
          "geoPoint": {
            "lat": 28.91749,
            "lon": -81.92286
          }
        },
        {
          "facility": "K2 Medical Research, Maitland",
          "city": "Maitland",
          "state": "Florida",
          "zip": "32751",
          "country": "United States",
          "geoPoint": {
            "lat": 28.62778,
            "lon": -81.36312
          }
        },
        {
          "facility": "Hlth Cr Family Rehab & Res Ctr",
          "city": "Miami",
          "state": "Florida",
          "zip": "33015",
          "country": "United States",
          "geoPoint": {
            "lat": 25.77427,
            "lon": -80.19366
          }
        },
        {
          "facility": "Premier Clin Res Inst, Inc.",
          "city": "Miami",
          "state": "Florida",
          "zip": "33122",
          "country": "United States",
          "geoPoint": {
            "lat": 25.77427,
            "lon": -80.19366
          }
        },
        {
          "facility": "Premier Clinical Research Institute, Inc.",
          "city": "Miami",
          "state": "Florida",
          "zip": "33122",
          "country": "United States",
          "geoPoint": {
            "lat": 25.77427,
            "lon": -80.19366
          }
        },
        {
          "facility": "Central Miami Medical Institute",
          "city": "Miami",
          "state": "Florida",
          "zip": "33125",
          "country": "United States",
          "geoPoint": {
            "lat": 25.77427,
            "lon": -80.19366
          }
        },
        {
          "facility": "Novel Clinical Research Center, LLC",
          "city": "Miami",
          "state": "Florida",
          "zip": "33173",
          "country": "United States",
          "geoPoint": {
            "lat": 25.77427,
            "lon": -80.19366
          }
        },
        {
          "facility": "IMIC, Inc- Medical Research",
          "city": "Miami",
          "state": "Florida",
          "zip": "33176",
          "country": "United States",
          "geoPoint": {
            "lat": 25.77427,
            "lon": -80.19366
          }
        },
        {
          "facility": "The Neurology Research Group",
          "city": "Miami",
          "state": "Florida",
          "zip": "33176",
          "country": "United States",
          "geoPoint": {
            "lat": 25.77427,
            "lon": -80.19366
          }
        },
        {
          "facility": "Visionary Inv Ntwrk_Miami",
          "city": "Miami",
          "state": "Florida",
          "zip": "33176",
          "country": "United States",
          "geoPoint": {
            "lat": 25.77427,
            "lon": -80.19366
          }
        },
        {
          "facility": "Aqualane Clinical Research",
          "city": "Naples",
          "state": "Florida",
          "zip": "34105",
          "country": "United States",
          "geoPoint": {
            "lat": 26.14234,
            "lon": -81.79596
          }
        },
        {
          "facility": "Suncoast Clin Res Port Richey",
          "city": "New Port Richey",
          "state": "Florida",
          "zip": "34652",
          "country": "United States",
          "geoPoint": {
            "lat": 28.24418,
            "lon": -82.71927
          }
        },
        {
          "facility": "Combined Research Orlando Phase I-IV",
          "city": "Orlando",
          "state": "Florida",
          "zip": "32807",
          "country": "United States",
          "geoPoint": {
            "lat": 28.53834,
            "lon": -81.37924
          }
        },
        {
          "facility": "Headlands Research Orlando",
          "city": "Orlando",
          "state": "Florida",
          "zip": "32819",
          "country": "United States",
          "geoPoint": {
            "lat": 28.53834,
            "lon": -81.37924
          }
        },
        {
          "facility": "Advanced Research Consultants, Inc.",
          "city": "Palm Beach Gardens",
          "state": "Florida",
          "zip": "33410",
          "country": "United States",
          "geoPoint": {
            "lat": 26.82339,
            "lon": -80.13865
          }
        },
        {
          "facility": "Intercoastal Medical Group",
          "city": "Sarasota",
          "state": "Florida",
          "zip": "34239",
          "country": "United States",
          "geoPoint": {
            "lat": 27.33643,
            "lon": -82.53065
          }
        },
        {
          "facility": "The Roskamp Institute, Inc.",
          "city": "Sarasota",
          "state": "Florida",
          "zip": "34243",
          "country": "United States",
          "geoPoint": {
            "lat": 27.33643,
            "lon": -82.53065
          }
        },
        {
          "facility": "Axiom Clinical Research of Florida",
          "city": "Tampa",
          "state": "Florida",
          "zip": "33609",
          "country": "United States",
          "geoPoint": {
            "lat": 27.94752,
            "lon": -82.45843
          }
        },
        {
          "facility": "Stedman Clinical Trials LLC",
          "city": "Tampa",
          "state": "Florida",
          "zip": "33613",
          "country": "United States",
          "geoPoint": {
            "lat": 27.94752,
            "lon": -82.45843
          }
        },
        {
          "facility": "Palm Beach Neuro Premiere Res",
          "city": "West Palm Beach",
          "state": "Florida",
          "zip": "33407",
          "country": "United States",
          "geoPoint": {
            "lat": 26.71534,
            "lon": -80.05337
          }
        },
        {
          "facility": "Conquest Research",
          "city": "Winter Park",
          "state": "Florida",
          "zip": "32789",
          "country": "United States",
          "geoPoint": {
            "lat": 28.6,
            "lon": -81.33924
          }
        },
        {
          "facility": "Center for Adv Res & Education",
          "city": "Gainesville",
          "state": "Georgia",
          "zip": "30501",
          "country": "United States",
          "geoPoint": {
            "lat": 34.29788,
            "lon": -83.82407
          }
        },
        {
          "facility": "Hawaii Neuroscience, Memory Disorders Center",
          "city": "Honolulu",
          "state": "Hawaii",
          "zip": "96817",
          "country": "United States",
          "geoPoint": {
            "lat": 21.30694,
            "lon": -157.85833
          }
        },
        {
          "facility": "Velocity Clinical Research, Meridian",
          "city": "Meridian",
          "state": "Idaho",
          "zip": "83642",
          "country": "United States",
          "geoPoint": {
            "lat": 43.61211,
            "lon": -116.39151
          }
        },
        {
          "facility": "Velocity Clinical Research",
          "city": "Meridian",
          "state": "Idaho",
          "zip": "83642",
          "country": "United States",
          "geoPoint": {
            "lat": 43.61211,
            "lon": -116.39151
          }
        },
        {
          "facility": "Cotton-O'Neil Clinical Research Center",
          "city": "Topeka",
          "state": "Kansas",
          "zip": "66606",
          "country": "United States",
          "geoPoint": {
            "lat": 39.04833,
            "lon": -95.67804
          }
        },
        {
          "facility": "University of Kentucky_Lexington_0",
          "city": "Lexington",
          "state": "Kentucky",
          "zip": "40504",
          "country": "United States",
          "geoPoint": {
            "lat": 37.98869,
            "lon": -84.47772
          }
        },
        {
          "facility": "Northern Light Eastern Maine Medical Center",
          "city": "Bangor",
          "state": "Maine",
          "zip": "04401",
          "country": "United States",
          "geoPoint": {
            "lat": 44.79884,
            "lon": -68.77265
          }
        },
        {
          "facility": "ActivMed Practice & Research LLC",
          "city": "Methuen",
          "state": "Massachusetts",
          "zip": "01844",
          "country": "United States",
          "geoPoint": {
            "lat": 42.7262,
            "lon": -71.19089
          }
        },
        {
          "facility": "Bronson Lakeview Neurobehavioral Health",
          "city": "Paw Paw",
          "state": "Michigan",
          "zip": "49079",
          "country": "United States",
          "geoPoint": {
            "lat": 42.21782,
            "lon": -85.89112
          }
        },
        {
          "facility": "HealthPartners Center for Memory and Aging",
          "city": "Saint Paul",
          "state": "Minnesota",
          "zip": "55130",
          "country": "United States",
          "geoPoint": {
            "lat": 44.94441,
            "lon": -93.09327
          }
        },
        {
          "facility": "Hattiesburg Clinic",
          "city": "Hattiesburg",
          "state": "Mississippi",
          "zip": "39401",
          "country": "United States",
          "geoPoint": {
            "lat": 31.32712,
            "lon": -89.29034
          }
        },
        {
          "facility": "Altea Research Institute",
          "city": "Las Vegas",
          "state": "Nevada",
          "zip": "89102",
          "country": "United States",
          "geoPoint": {
            "lat": 36.17497,
            "lon": -115.13722
          }
        },
        {
          "facility": "Wr-Crcn, Llc",
          "city": "Las Vegas",
          "state": "Nevada",
          "zip": "89106",
          "country": "United States",
          "geoPoint": {
            "lat": 36.17497,
            "lon": -115.13722
          }
        },
        {
          "facility": "Patient First MD,clinical Trials",
          "city": "Middletown",
          "state": "New Jersey",
          "zip": "07748",
          "country": "United States",
          "geoPoint": {
            "lat": 40.39428,
            "lon": -74.11709
          }
        },
        {
          "facility": "Advanced Memory Research Institute of NJ",
          "city": "Toms River",
          "state": "New Jersey",
          "zip": "08755",
          "country": "United States",
          "geoPoint": {
            "lat": 39.95373,
            "lon": -74.19792
          }
        },
        {
          "facility": "Albuquerque neuroscience Inc",
          "city": "Albuquerque",
          "state": "New Mexico",
          "zip": "87109",
          "country": "United States",
          "geoPoint": {
            "lat": 35.08449,
            "lon": -106.65114
          }
        },
        {
          "facility": "SPRI Clinical Trials, LLC",
          "city": "Brooklyn",
          "state": "New York",
          "zip": "11235",
          "country": "United States",
          "geoPoint": {
            "lat": 40.6501,
            "lon": -73.94958
          }
        },
        {
          "facility": "Neurological Assoc Long Island",
          "city": "Lake Success",
          "state": "New York",
          "zip": "11042",
          "country": "United States",
          "geoPoint": {
            "lat": 40.77066,
            "lon": -73.71763
          }
        },
        {
          "facility": "NYU Grossman School of Med",
          "city": "New York",
          "state": "New York",
          "zip": "10016",
          "country": "United States",
          "geoPoint": {
            "lat": 40.71427,
            "lon": -74.00597
          }
        },
        {
          "facility": "Richmond Behavioral Associates",
          "city": "Staten Island",
          "state": "New York",
          "zip": "10314",
          "country": "United States",
          "geoPoint": {
            "lat": 40.56233,
            "lon": -74.13986
          }
        },
        {
          "facility": "New Hope Clinical Research",
          "city": "Charlotte",
          "state": "North Carolina",
          "zip": "28211",
          "country": "United States",
          "geoPoint": {
            "lat": 35.22709,
            "lon": -80.84313
          }
        },
        {
          "facility": "AMC Research, LLC",
          "city": "Matthews",
          "state": "North Carolina",
          "zip": "28105",
          "country": "United States",
          "geoPoint": {
            "lat": 35.11681,
            "lon": -80.72368
          }
        },
        {
          "facility": "Insight Clinical Trials LLC",
          "city": "Beachwood",
          "state": "Ohio",
          "zip": "44122",
          "country": "United States",
          "geoPoint": {
            "lat": 41.4645,
            "lon": -81.50873
          }
        },
        {
          "facility": "NeuroScience Research Center, LLC",
          "city": "Canton",
          "state": "Ohio",
          "zip": "44718",
          "country": "United States",
          "geoPoint": {
            "lat": 40.79895,
            "lon": -81.37845
          }
        },
        {
          "facility": "Valley Medical Primary Care",
          "city": "Centerville",
          "state": "Ohio",
          "zip": "45459",
          "country": "United States",
          "geoPoint": {
            "lat": 39.62839,
            "lon": -84.15938
          }
        },
        {
          "facility": "Central States Research, LLC",
          "city": "Tulsa",
          "state": "Oklahoma",
          "zip": "74136",
          "country": "United States",
          "geoPoint": {
            "lat": 36.15398,
            "lon": -95.99277
          }
        },
        {
          "facility": "Summit Research Network Oregon Inc.",
          "city": "Portland",
          "state": "Oregon",
          "zip": "97210",
          "country": "United States",
          "geoPoint": {
            "lat": 45.52345,
            "lon": -122.67621
          }
        },
        {
          "facility": "Neural Net Research, LLC",
          "city": "Portland",
          "state": "Oregon",
          "zip": "97225",
          "country": "United States",
          "geoPoint": {
            "lat": 45.52345,
            "lon": -122.67621
          }
        },
        {
          "facility": "The Clinical Trial Center",
          "city": "Jenkintown",
          "state": "Pennsylvania",
          "zip": "19046",
          "country": "United States",
          "geoPoint": {
            "lat": 40.09594,
            "lon": -75.12517
          }
        },
        {
          "facility": "Suburban Research Associates",
          "city": "Media",
          "state": "Pennsylvania",
          "zip": "19063",
          "country": "United States",
          "geoPoint": {
            "lat": 39.91678,
            "lon": -75.38769
          }
        },
        {
          "facility": "Lowcountry Center for Vet Res",
          "city": "Charleston",
          "state": "South Carolina",
          "zip": "29403",
          "country": "United States",
          "geoPoint": {
            "lat": 32.77632,
            "lon": -79.93275
          }
        },
        {
          "facility": "Coastal Neurology",
          "city": "Port Royal",
          "state": "South Carolina",
          "zip": "29935",
          "country": "United States",
          "geoPoint": {
            "lat": 32.37896,
            "lon": -80.69265
          }
        },
        {
          "facility": "Genesis Neuroscience Clinic",
          "city": "Knoxville",
          "state": "Tennessee",
          "zip": "37909",
          "country": "United States",
          "geoPoint": {
            "lat": 35.96064,
            "lon": -83.92074
          }
        },
        {
          "facility": "Vanderbilt Medical Center",
          "city": "Nashville",
          "state": "Tennessee",
          "zip": "37212",
          "country": "United States",
          "geoPoint": {
            "lat": 36.16589,
            "lon": -86.78444
          }
        },
        {
          "facility": "Texas Diabetes & Endocrinology",
          "city": "Austin",
          "state": "Texas",
          "zip": "78749",
          "country": "United States",
          "geoPoint": {
            "lat": 30.26715,
            "lon": -97.74306
          }
        },
        {
          "facility": "Univ Of Texas Hlth Science Cntr",
          "city": "Houston",
          "state": "Texas",
          "zip": "77054",
          "country": "United States",
          "geoPoint": {
            "lat": 29.76328,
            "lon": -95.36327
          }
        },
        {
          "facility": "Glenn Biggs Inst-Alzhm Neuro",
          "city": "San Antonio",
          "state": "Texas",
          "zip": "78229",
          "country": "United States",
          "geoPoint": {
            "lat": 29.42412,
            "lon": -98.49363
          }
        },
        {
          "facility": "Shirzadi Shahin, MD",
          "city": "Sugar Land",
          "state": "Texas",
          "zip": "77478",
          "country": "United States",
          "geoPoint": {
            "lat": 29.61968,
            "lon": -95.63495
          }
        },
        {
          "facility": "Memory Clinic, Inc",
          "city": "Bennington",
          "state": "Vermont",
          "zip": "05201",
          "country": "United States",
          "geoPoint": {
            "lat": 42.87813,
            "lon": -73.19677
          }
        },
        {
          "facility": "Integrated Neurology Services",
          "city": "Falls Church",
          "state": "Virginia",
          "zip": "22043",
          "country": "United States",
          "geoPoint": {
            "lat": 38.88233,
            "lon": -77.17109
          }
        },
        {
          "facility": "National Clin Res Inc.",
          "city": "Richmond",
          "state": "Virginia",
          "zip": "23294",
          "country": "United States",
          "geoPoint": {
            "lat": 37.55376,
            "lon": -77.46026
          }
        },
        {
          "facility": "Booth Gardner Parkinson's Cre",
          "city": "Kirkland",
          "state": "Washington",
          "zip": "98034",
          "country": "United States",
          "geoPoint": {
            "lat": 47.68149,
            "lon": -122.20874
          }
        },
        {
          "facility": "Instituto Medico Especializado_Capital Federal",
          "city": "Ciudad de Buenos Aires",
          "state": "Buenos Aires",
          "zip": "C1405CWB",
          "country": "Argentina"
        },
        {
          "facility": "Instituto de Investigaciones Metabolicas (IDIM)",
          "city": "Buenos Aires",
          "zip": "C1012AAR",
          "country": "Argentina",
          "geoPoint": {
            "lat": -34.61315,
            "lon": -58.37723
          }
        },
        {
          "facility": "Hospital Italiano",
          "city": "Buenos Aires",
          "zip": "C1181ACH",
          "country": "Argentina",
          "geoPoint": {
            "lat": -34.61315,
            "lon": -58.37723
          }
        },
        {
          "facility": "Clínica Nuestra Señora de las Nieves",
          "city": "CABA",
          "zip": "1427",
          "country": "Argentina"
        },
        {
          "facility": "FLENI",
          "city": "CABA",
          "zip": "1428",
          "country": "Argentina"
        },
        {
          "facility": "Instituto Privado Kremer",
          "city": "Córdoba",
          "zip": "X5004AOA",
          "country": "Argentina",
          "geoPoint": {
            "lat": -31.40648,
            "lon": -64.18853
          }
        },
        {
          "facility": "Fundación Scherbovsky",
          "city": "Mendoza",
          "zip": "5500",
          "country": "Argentina",
          "geoPoint": {
            "lat": -32.88946,
            "lon": -68.84582
          }
        },
        {
          "facility": "St Vincent's Hospital",
          "city": "Darlinghurst",
          "state": "New South Wales",
          "zip": "2010",
          "country": "Australia",
          "geoPoint": {
            "lat": -33.87939,
            "lon": 151.21925
          }
        },
        {
          "facility": "HammondCare Greenwich",
          "city": "Greenwich",
          "state": "New South Wales",
          "zip": "2065",
          "country": "Australia",
          "geoPoint": {
            "lat": -33.83954,
            "lon": 151.183
          }
        },
        {
          "facility": "Southern Neurology",
          "city": "Kogarah",
          "state": "New South Wales",
          "zip": "2217",
          "country": "Australia",
          "geoPoint": {
            "lat": -33.9681,
            "lon": 151.13564
          }
        },
        {
          "facility": "Hunter New England Local Health District - Neuropsychiatry",
          "city": "Waratah",
          "state": "New South Wales",
          "zip": "2298",
          "country": "Australia",
          "geoPoint": {
            "lat": -32.90667,
            "lon": 151.72647
          }
        },
        {
          "facility": "The Prince Charles Hospital",
          "city": "Chermside",
          "state": "Queensland",
          "zip": "4032",
          "country": "Australia",
          "geoPoint": {
            "lat": -27.38472,
            "lon": 153.03062
          }
        },
        {
          "facility": "Medical and Cognitive Research Unit - Austin Health",
          "city": "Ivanhoe",
          "state": "Victoria",
          "zip": "3079",
          "country": "Australia",
          "geoPoint": {
            "lat": -37.76903,
            "lon": 145.04308
          }
        },
        {
          "facility": "Australian Alzheimer's Research Foundation Incorporated",
          "city": "Nedlands",
          "state": "Western Australia",
          "zip": "6009",
          "country": "Australia",
          "geoPoint": {
            "lat": -31.98184,
            "lon": 115.8073
          }
        },
        {
          "facility": "Universitätsklinik für Neurologie",
          "city": "Graz",
          "zip": "8036",
          "country": "Austria",
          "geoPoint": {
            "lat": 47.06733,
            "lon": 15.44197
          }
        },
        {
          "facility": "LKH-Univ. Kliniken Innsbruck",
          "city": "Innsbruck",
          "zip": "6020",
          "country": "Austria",
          "geoPoint": {
            "lat": 47.26266,
            "lon": 11.39454
          }
        },
        {
          "facility": "Medizinische Univ. Innsbruck",
          "city": "Innsbruck",
          "zip": "6020",
          "country": "Austria",
          "geoPoint": {
            "lat": 47.26266,
            "lon": 11.39454
          }
        },
        {
          "facility": "Univ. Klinik für Neurologie",
          "city": "Salzburg",
          "zip": "5020",
          "country": "Austria",
          "geoPoint": {
            "lat": 47.79941,
            "lon": 13.04399
          }
        },
        {
          "facility": "Medizinische Universität Wien",
          "city": "Vienna",
          "zip": "1090",
          "country": "Austria",
          "geoPoint": {
            "lat": 48.20849,
            "lon": 16.37208
          }
        },
        {
          "facility": "AZ Sint-Jan - Campus Sint-Jan - Neurology",
          "city": "Bruges",
          "zip": "8000",
          "country": "Belgium",
          "geoPoint": {
            "lat": 51.20892,
            "lon": 3.22424
          }
        },
        {
          "facility": "UZA - UZ Antwerpen - Department of Neurology",
          "city": "Edegem",
          "zip": "2650",
          "country": "Belgium",
          "geoPoint": {
            "lat": 51.15662,
            "lon": 4.44504
          }
        },
        {
          "facility": "AZ Groeninge - Kortrijk - Neurologie",
          "city": "Kortrijk",
          "zip": "8500",
          "country": "Belgium",
          "geoPoint": {
            "lat": 50.82803,
            "lon": 3.26487
          }
        },
        {
          "facility": "Clinique CHC MontLégia - Service Neurologie",
          "city": "Liège",
          "zip": "4000",
          "country": "Belgium",
          "geoPoint": {
            "lat": 50.63373,
            "lon": 5.56749
          }
        },
        {
          "facility": "L2 IP Instituto de Pesquisas Clinicas Ltda",
          "city": "Brasília",
          "state": "Federal District",
          "zip": "70200730",
          "country": "Brazil",
          "geoPoint": {
            "lat": -15.77972,
            "lon": -47.92972
          }
        },
        {
          "facility": "Hospital das Clínicas - Universidade Federal de Minas Gerais",
          "city": "Belo Horizonte",
          "state": "Minas Gerais",
          "zip": "30130-100",
          "country": "Brazil",
          "geoPoint": {
            "lat": -19.92083,
            "lon": -43.93778
          }
        },
        {
          "facility": "Instituto de Neurologia de Curitiba",
          "city": "Curitiba",
          "state": "Paraná",
          "zip": "81210-310",
          "country": "Brazil",
          "geoPoint": {
            "lat": -25.42778,
            "lon": -49.27306
          }
        },
        {
          "facility": "Clinica Clinilive Ltda",
          "city": "Maringá",
          "state": "Paraná",
          "zip": "87013-250",
          "country": "Brazil",
          "geoPoint": {
            "lat": -23.42528,
            "lon": -51.93861
          }
        },
        {
          "facility": "Núcleo de Pesquisa Clínica do Rio Grande do Sul Ltda.",
          "city": "Porto Alegre",
          "state": "Rio Grande do Sul",
          "zip": "90430-001",
          "country": "Brazil",
          "geoPoint": {
            "lat": -30.03283,
            "lon": -51.23019
          }
        },
        {
          "facility": "CPQuali Pesquisa Clínica Ltda",
          "city": "São Paulo",
          "state": "São Paulo",
          "zip": "01228-000",
          "country": "Brazil",
          "geoPoint": {
            "lat": -23.5475,
            "lon": -46.63611
          }
        },
        {
          "facility": "BR Trials - Ensaios Clínicos e Consultoria Ltda.",
          "city": "São Paulo",
          "state": "São Paulo",
          "zip": "01236-030",
          "country": "Brazil",
          "geoPoint": {
            "lat": -23.5475,
            "lon": -46.63611
          }
        },
        {
          "facility": "Assoc. Paulista para o Desenvolvimento da Medicina - UNIFESP",
          "city": "São Paulo",
          "state": "São Paulo",
          "zip": "04024-002",
          "country": "Brazil",
          "geoPoint": {
            "lat": -23.5475,
            "lon": -46.63611
          }
        },
        {
          "facility": "Sociedade Beneficente Israelita Bras Hosp Albert Einstein",
          "city": "São Paulo",
          "state": "São Paulo",
          "zip": "05652-900",
          "country": "Brazil",
          "geoPoint": {
            "lat": -23.5475,
            "lon": -46.63611
          }
        },
        {
          "facility": "Centro de Psiquiatria Sandra Rushel",
          "city": "Rio de Janeiro",
          "zip": "22270-060",
          "country": "Brazil",
          "geoPoint": {
            "lat": -22.90642,
            "lon": -43.18223
          }
        },
        {
          "facility": "\"MHATNP \"Sv. Naum\"\" EAD",
          "city": "Sofia",
          "zip": "1113",
          "country": "Bulgaria",
          "geoPoint": {
            "lat": 42.69751,
            "lon": 23.32415
          }
        },
        {
          "facility": "MHATNP Sveti Naum EAD",
          "city": "Sofia",
          "zip": "1113",
          "country": "Bulgaria",
          "geoPoint": {
            "lat": 42.69751,
            "lon": 23.32415
          }
        },
        {
          "facility": "DCC Sv. Vrach and Sv. Sv. Kuzma and Damyan OOD, Psychiatry",
          "city": "Sofia",
          "zip": "1408",
          "country": "Bulgaria",
          "geoPoint": {
            "lat": 42.69751,
            "lon": 23.32415
          }
        },
        {
          "facility": "\"UMHAT \"Aleksandrovska\", Neurology clinic",
          "city": "Sofia",
          "zip": "1431",
          "country": "Bulgaria",
          "geoPoint": {
            "lat": 42.69751,
            "lon": 23.32415
          }
        },
        {
          "facility": "MMA, MHAT-Sofia, Neurology clinic",
          "city": "Sofia",
          "zip": "1606",
          "country": "Bulgaria",
          "geoPoint": {
            "lat": 42.69751,
            "lon": 23.32415
          }
        },
        {
          "facility": "OCT Research ULC (dba Okanagan Clinical Trials)",
          "city": "Kelowna",
          "state": "British Columbia",
          "zip": "V1Y 1Z9",
          "country": "Canada",
          "geoPoint": {
            "lat": 49.88307,
            "lon": -119.48568
          }
        },
        {
          "facility": "Medical Arts Health Research Group_Kelowna",
          "city": "Penticton",
          "state": "British Columbia",
          "zip": "V2A 5L5",
          "country": "Canada",
          "geoPoint": {
            "lat": 49.48062,
            "lon": -119.58584
          }
        },
        {
          "facility": "Island Health (Research and Capacity Building)",
          "city": "Victoria",
          "state": "British Columbia",
          "zip": "V8R 1J8",
          "country": "Canada",
          "geoPoint": {
            "lat": 48.4359,
            "lon": -123.35155
          }
        },
        {
          "facility": "Medical Arts Health Research Group",
          "city": "West Vancouver",
          "state": "British Columbia",
          "zip": "V7T 1C5",
          "country": "Canada",
          "geoPoint": {
            "lat": 49.3286,
            "lon": -123.16019
          }
        },
        {
          "facility": "True North Clinical Research - Halifax",
          "city": "Halifax",
          "state": "Nova Scotia",
          "zip": "B3S 1N2",
          "country": "Canada",
          "geoPoint": {
            "lat": 44.64269,
            "lon": -63.57688
          }
        },
        {
          "facility": "True North Clinical Research - New Minas",
          "city": "New Minas",
          "state": "Nova Scotia",
          "zip": "B4N 3R7",
          "country": "Canada",
          "geoPoint": {
            "lat": 45.0691,
            "lon": -64.46958
          }
        },
        {
          "facility": "Ottawa Memory Clinic",
          "city": "Ottawa",
          "state": "Ontario",
          "zip": "K1Z 1G3",
          "country": "Canada",
          "geoPoint": {
            "lat": 45.41117,
            "lon": -75.69812
          }
        },
        {
          "facility": "Recherches Neuro-Hippocampe Inc",
          "city": "Ottowa",
          "state": "Ontario",
          "zip": "K1Z 1G3",
          "country": "Canada"
        },
        {
          "facility": "Memory Program",
          "city": "Toronto",
          "state": "Ontario",
          "zip": "M3B2S7",
          "country": "Canada",
          "geoPoint": {
            "lat": 43.70643,
            "lon": -79.39864
          }
        },
        {
          "facility": "Centricity Research LMC",
          "city": "Toronto",
          "state": "Ontario",
          "zip": "M4G 3E8",
          "country": "Canada",
          "geoPoint": {
            "lat": 43.70643,
            "lon": -79.39864
          }
        },
        {
          "facility": "Sunnybrook Health Sciences Centre",
          "city": "Toronto",
          "state": "Ontario",
          "zip": "M4N 3M5",
          "country": "Canada",
          "geoPoint": {
            "lat": 43.70643,
            "lon": -79.39864
          }
        },
        {
          "facility": "University Health Network - Toronto Western Hospital",
          "city": "Toronto",
          "state": "Ontario",
          "zip": "M5T 2S8",
          "country": "Canada",
          "geoPoint": {
            "lat": 43.70643,
            "lon": -79.39864
          }
        },
        {
          "facility": "University Health Network",
          "city": "Toronto",
          "state": "Ontario",
          "zip": "M5T 2S8",
          "country": "Canada",
          "geoPoint": {
            "lat": 43.70643,
            "lon": -79.39864
          }
        },
        {
          "facility": "Douglas Hosp Res Ctr",
          "city": "Montreal",
          "state": "Quebec",
          "zip": "H4H 1R3",
          "country": "Canada",
          "geoPoint": {
            "lat": 45.50884,
            "lon": -73.58781
          }
        },
        {
          "facility": "CHU de Quebec-Universite Laval",
          "city": "Québec",
          "state": "Quebec",
          "zip": "G1J 1Z4",
          "country": "Canada",
          "geoPoint": {
            "lat": 46.81228,
            "lon": -71.21454
          }
        },
        {
          "facility": "Neuro Health Centrum s.r.o.",
          "city": "Brno-Lisen",
          "zip": "628 00",
          "country": "Czechia"
        },
        {
          "facility": "NeuroHK s.r.o.",
          "city": "Choceň",
          "zip": "565 01",
          "country": "Czechia",
          "geoPoint": {
            "lat": 50.00161,
            "lon": 16.22303
          }
        },
        {
          "facility": "AGE Centrum",
          "city": "Olomouc",
          "zip": "77900",
          "country": "Czechia",
          "geoPoint": {
            "lat": 49.59552,
            "lon": 17.25175
          }
        },
        {
          "facility": "AD71 s.r.o.",
          "city": "Prague",
          "zip": "109 00",
          "country": "Czechia",
          "geoPoint": {
            "lat": 50.08804,
            "lon": 14.42076
          }
        },
        {
          "facility": "Neuropsychiatrie s.r.o.",
          "city": "Prague",
          "zip": "160 00",
          "country": "Czechia",
          "geoPoint": {
            "lat": 50.08804,
            "lon": 14.42076
          }
        },
        {
          "facility": "Vestra Clinics s.r.o.",
          "city": "Rychnov nad Kněžnou",
          "zip": "51601",
          "country": "Czechia",
          "geoPoint": {
            "lat": 50.16284,
            "lon": 16.27488
          }
        },
        {
          "facility": "Aarhus Universitetshospital - Neurologisk Klinik",
          "city": "Aarhus N",
          "zip": "8200",
          "country": "Denmark",
          "geoPoint": {
            "lat": 56.20367,
            "lon": 10.17317
          }
        },
        {
          "facility": "Rigshospitalet - afsnit 8015 Hukommelsesklinikken",
          "city": "København Ø",
          "zip": "2100",
          "country": "Denmark",
          "geoPoint": {
            "lat": 55.70968,
            "lon": 12.56862
          }
        },
        {
          "facility": "Rigshospitalet - afsnit 8015",
          "city": "København Ø",
          "zip": "2100",
          "country": "Denmark",
          "geoPoint": {
            "lat": 55.70968,
            "lon": 12.56862
          }
        },
        {
          "facility": "Sjællands Universitetshospital_Roskilde",
          "city": "Roskilde",
          "zip": "4000",
          "country": "Denmark",
          "geoPoint": {
            "lat": 55.64152,
            "lon": 12.08035
          }
        },
        {
          "facility": "CRST Helsinki",
          "city": "Helsinki",
          "zip": "00180",
          "country": "Finland",
          "geoPoint": {
            "lat": 60.16952,
            "lon": 24.93545
          }
        },
        {
          "facility": "Aivotutkimusyksikkö",
          "city": "Kuopio",
          "zip": "70210",
          "country": "Finland",
          "geoPoint": {
            "lat": 62.89238,
            "lon": 27.67703
          }
        },
        {
          "facility": "CRST Turku",
          "city": "Turku",
          "zip": "20520",
          "country": "Finland",
          "geoPoint": {
            "lat": 60.45148,
            "lon": 22.26869
          }
        },
        {
          "facility": "Centre Hospitalier Universitaire de Bordeaux-Hopital Pellegrin",
          "city": "Bordeaux",
          "zip": "33000",
          "country": "France",
          "geoPoint": {
            "lat": 44.84124,
            "lon": -0.58046
          }
        },
        {
          "facility": "Hospices Civils de Lyon-Hopital Pierre Wertheimer",
          "city": "Bron",
          "zip": "69500",
          "country": "France",
          "geoPoint": {
            "lat": 45.73865,
            "lon": 4.91303
          }
        },
        {
          "facility": "Centre Hospitalier Universitaire de Dijon-Hopital Le Bocage",
          "city": "Dijon",
          "zip": "21000",
          "country": "France",
          "geoPoint": {
            "lat": 47.31344,
            "lon": 5.01391
          }
        },
        {
          "facility": "Centre Hospitalier Universitaire de Lille-Hopital Roger Salengro",
          "city": "Lille",
          "zip": "59037",
          "country": "France",
          "geoPoint": {
            "lat": 50.63391,
            "lon": 3.05512
          }
        },
        {
          "facility": "Hôpital Roger Salengro",
          "city": "Lille",
          "zip": "59037",
          "country": "France",
          "geoPoint": {
            "lat": 50.63391,
            "lon": 3.05512
          }
        },
        {
          "facility": "Centre Hospitalier Et Universitaire de Limoges-Hopital Dupuytren",
          "city": "Limoges",
          "zip": "87042",
          "country": "France",
          "geoPoint": {
            "lat": 45.83362,
            "lon": 1.24759
          }
        },
        {
          "facility": "Assistance Publique Hopitaux de Marseille-Hopital de La Timone-1",
          "city": "Marseille",
          "zip": "13005",
          "country": "France",
          "geoPoint": {
            "lat": 43.29695,
            "lon": 5.38107
          }
        },
        {
          "facility": "Centre Hospitalier Universitaire de Nice-Institut Claude Pompidou",
          "city": "Nice",
          "zip": "06100",
          "country": "France",
          "geoPoint": {
            "lat": 43.70313,
            "lon": 7.26608
          }
        },
        {
          "facility": "Aphp-Hopital Lariboisiere-1",
          "city": "Paris",
          "zip": "75010",
          "country": "France",
          "geoPoint": {
            "lat": 48.85341,
            "lon": 2.3488
          }
        },
        {
          "facility": "Aphp-Hopital La Pitie Salpetriere-3",
          "city": "Paris",
          "zip": "75013",
          "country": "France",
          "geoPoint": {
            "lat": 48.85341,
            "lon": 2.3488
          }
        },
        {
          "facility": "Centre Hospitalier Universitaire Reims-Hopital Maison Blanche",
          "city": "Reims",
          "zip": "51092",
          "country": "France",
          "geoPoint": {
            "lat": 49.26526,
            "lon": 4.02853
          }
        },
        {
          "facility": "Centre Hospitalier Universitaire de Nantes-Hopital Nord Laennec-2",
          "city": "Saint-Herblain",
          "zip": "44800",
          "country": "France",
          "geoPoint": {
            "lat": 47.21154,
            "lon": -1.651
          }
        },
        {
          "facility": "Les Hopitaux Universitaires de Strasbourg-Hopital de La Robertsau",
          "city": "Strasbourg",
          "zip": "67000",
          "country": "France",
          "geoPoint": {
            "lat": 48.58392,
            "lon": 7.74553
          }
        },
        {
          "facility": "Centre Hospitalier Universitaire de Toulouse-Hopital La Grave",
          "city": "Toulouse",
          "zip": "31300",
          "country": "France",
          "geoPoint": {
            "lat": 43.60426,
            "lon": 1.44367
          }
        },
        {
          "facility": "Hospices Civils de Lyon-Hopital Des Charpennes",
          "city": "Villeurbanne",
          "zip": "69100",
          "country": "France",
          "geoPoint": {
            "lat": 45.76601,
            "lon": 4.8795
          }
        },
        {
          "facility": "Zentrum für klinische Forschung Dr. med. Irma Schöll GmbH",
          "city": "Bad Homburg",
          "state": "Hesse",
          "zip": "61348",
          "country": "Germany",
          "geoPoint": {
            "lat": 50.22683,
            "lon": 8.61816
          }
        },
        {
          "facility": "Uniklinik Aachen - Neurologie",
          "city": "Aachen",
          "zip": "52074",
          "country": "Germany",
          "geoPoint": {
            "lat": 50.77664,
            "lon": 6.08342
          }
        },
        {
          "facility": "Studienzentrum Dr. Bischof GmbH",
          "city": "Böblingen",
          "zip": "71034",
          "country": "Germany",
          "geoPoint": {
            "lat": 48.68212,
            "lon": 9.01171
          }
        },
        {
          "facility": "Universitätsklinikum Köln - Klinik und Poliklinik für Psychiatrie und Psychotherapie",
          "city": "Cologne",
          "zip": "50937",
          "country": "Germany",
          "geoPoint": {
            "lat": 50.93333,
            "lon": 6.95
          }
        },
        {
          "facility": "Neuro Centrum Science GmbH",
          "city": "Erbach im Odenwald",
          "zip": "64711",
          "country": "Germany",
          "geoPoint": {
            "lat": 49.66148,
            "lon": 8.99402
          }
        },
        {
          "facility": "Uni-Med. Göttingen - Geriatrie",
          "city": "Göttingen",
          "zip": "37075",
          "country": "Germany",
          "geoPoint": {
            "lat": 51.53443,
            "lon": 9.93228
          }
        },
        {
          "facility": "Universitätsklinikum Hamburg-Eppendorf, Psychiatrie",
          "city": "Hamburg",
          "zip": "20246",
          "country": "Germany",
          "geoPoint": {
            "lat": 53.55073,
            "lon": 9.99302
          }
        },
        {
          "facility": "Universitätsmedizin der JGU Mainz - Psychiatrie",
          "city": "Mainz",
          "zip": "55131",
          "country": "Germany",
          "geoPoint": {
            "lat": 49.98185,
            "lon": 8.28008
          }
        },
        {
          "facility": "Universitätsmedizin Mainz, Psychiatrie",
          "city": "Mainz",
          "zip": "55131",
          "country": "Germany",
          "geoPoint": {
            "lat": 49.98185,
            "lon": 8.28008
          }
        },
        {
          "facility": "Zentralinstitut für Seelische Gesundheit (ZI) Mannheim - Psychiatrie und Psychotherapie",
          "city": "Mannheim",
          "zip": "68159",
          "country": "Germany",
          "geoPoint": {
            "lat": 49.4891,
            "lon": 8.46694
          }
        },
        {
          "facility": "Zentralinstitut für Seelische Gesundheit - Psychiatrie und Psychotherapie",
          "city": "Mannheim",
          "zip": "68159",
          "country": "Germany",
          "geoPoint": {
            "lat": 49.4891,
            "lon": 8.46694
          }
        },
        {
          "facility": "LMU Klinikum - Institut für Schlaganfall- und Demenzforschung (ISD)",
          "city": "München",
          "zip": "81377",
          "country": "Germany",
          "geoPoint": {
            "lat": 51.60698,
            "lon": 13.31243
          }
        },
        {
          "facility": "Universitätsklinikum Ulm - Neurologie",
          "city": "Ulm",
          "zip": "89081",
          "country": "Germany",
          "geoPoint": {
            "lat": 48.39841,
            "lon": 9.99155
          }
        },
        {
          "facility": "Studienzentrum Nord-West",
          "city": "Westerstede",
          "zip": "26655",
          "country": "Germany",
          "geoPoint": {
            "lat": 53.25682,
            "lon": 7.92737
          }
        },
        {
          "facility": "Naval Hospital of Athens",
          "city": "Athens",
          "zip": "11521",
          "country": "Greece",
          "geoPoint": {
            "lat": 37.98376,
            "lon": 23.72784
          }
        },
        {
          "facility": "Henry Dunant Hospital Center,2nd Neurological Department",
          "city": "Athens",
          "zip": "11526",
          "country": "Greece",
          "geoPoint": {
            "lat": 37.98376,
            "lon": 23.72784
          }
        },
        {
          "facility": "Aiginitio Hospital, 1st Neurology Clinic",
          "city": "Athens",
          "zip": "11528",
          "country": "Greece",
          "geoPoint": {
            "lat": 37.98376,
            "lon": 23.72784
          }
        },
        {
          "facility": "\"Hygeia\" General Hospital of Athens, Memory clinic",
          "city": "Athens",
          "zip": "15123",
          "country": "Greece",
          "geoPoint": {
            "lat": 37.98376,
            "lon": 23.72784
          }
        },
        {
          "facility": "Naval Hospital of Athens",
          "city": "Athens",
          "zip": "GR-11521",
          "country": "Greece",
          "geoPoint": {
            "lat": 37.98376,
            "lon": 23.72784
          }
        },
        {
          "facility": "University General Hospital of Athens \"Attiko\"",
          "city": "Chaidari, Athens",
          "zip": "GR-12462",
          "country": "Greece"
        },
        {
          "facility": "Iatriko Athinon (Athens Medical Center),Memory Disorders Cli",
          "city": "Marousi",
          "zip": "15125",
          "country": "Greece",
          "geoPoint": {
            "lat": 38.05,
            "lon": 23.8
          }
        },
        {
          "facility": "AHEPA General University Hospital",
          "city": "Thessaloniki",
          "zip": "54636",
          "country": "Greece",
          "geoPoint": {
            "lat": 40.64072,
            "lon": 22.93493
          }
        },
        {
          "facility": "EUROMEDICA General Clinic of Thessaloniki,Neurology Dpt",
          "city": "Thessaloniki",
          "zip": "54643",
          "country": "Greece",
          "geoPoint": {
            "lat": 40.64072,
            "lon": 22.93493
          }
        },
        {
          "facility": "Clinexpert Egészségügyi Szolgáltató és Kereskedelmi Kft.",
          "city": "Budapest",
          "zip": "1036",
          "country": "Hungary",
          "geoPoint": {
            "lat": 47.49835,
            "lon": 19.04045
          }
        },
        {
          "facility": "Semmelweis Egyetem ÁOK",
          "city": "Budapest",
          "zip": "1083",
          "country": "Hungary",
          "geoPoint": {
            "lat": 47.49835,
            "lon": 19.04045
          }
        },
        {
          "facility": "DE Kenézy Gyula Campus, Pszichiátriai és Pszichoterápiai Klinika",
          "city": "Debrecen",
          "zip": "4031",
          "country": "Hungary",
          "geoPoint": {
            "lat": 47.53167,
            "lon": 21.62444
          }
        },
        {
          "facility": "DE Gyógyszerfejlesztési Koordinációs Központ Pszichiátria",
          "city": "Debrecen",
          "zip": "4032",
          "country": "Hungary",
          "geoPoint": {
            "lat": 47.53167,
            "lon": 21.62444
          }
        },
        {
          "facility": "Bugát Pál Kórház",
          "city": "Gyöngyös",
          "zip": "3200",
          "country": "Hungary",
          "geoPoint": {
            "lat": 47.78257,
            "lon": 19.928
          }
        },
        {
          "facility": "Petz Aladar Megyei Korhaz",
          "city": "Győr",
          "zip": "9024",
          "country": "Hungary",
          "geoPoint": {
            "lat": 47.68333,
            "lon": 17.63512
          }
        },
        {
          "facility": "Petz Aladar Megyei Oktato Korhaz",
          "city": "Győr",
          "zip": "9024",
          "country": "Hungary",
          "geoPoint": {
            "lat": 47.68333,
            "lon": 17.63512
          }
        },
        {
          "facility": "DR. MÁTHÉ ÉS TÁRSA Egészségügyi és Szolgáltató Betéti Társaság",
          "city": "Kalocsa",
          "zip": "6300",
          "country": "Hungary",
          "geoPoint": {
            "lat": 46.52981,
            "lon": 18.97283
          }
        },
        {
          "facility": "Somogy Megyei Kaposi Mór Oktató Kórház",
          "city": "Kaposvár",
          "zip": "7400",
          "country": "Hungary",
          "geoPoint": {
            "lat": 46.36667,
            "lon": 17.8
          }
        },
        {
          "facility": "Psychotech Kft.",
          "city": "Pécs",
          "zip": "7633",
          "country": "Hungary",
          "geoPoint": {
            "lat": 46.07617,
            "lon": 18.22814
          }
        },
        {
          "facility": "Szent Borbála Kórház",
          "city": "Tatabánya",
          "zip": "2800",
          "country": "Hungary",
          "geoPoint": {
            "lat": 47.59247,
            "lon": 18.38099
          }
        },
        {
          "facility": "Belvárosi Egészségház Kft.",
          "city": "Zalaegerszeg",
          "zip": "8900",
          "country": "Hungary",
          "geoPoint": {
            "lat": 46.83695,
            "lon": 16.84401
          }
        },
        {
          "facility": "Mercy Hospital Cork",
          "city": "Cork",
          "zip": "T12 WE28",
          "country": "Ireland",
          "geoPoint": {
            "lat": 51.89797,
            "lon": -8.47061
          }
        },
        {
          "facility": "Clinical Research Centre, St. Vincent's University Hospital,",
          "city": "Dublin",
          "zip": "D04 YN63",
          "country": "Ireland",
          "geoPoint": {
            "lat": 53.33306,
            "lon": -6.24889
          }
        },
        {
          "facility": "St Vincent's University Hospital",
          "city": "Dublin",
          "zip": "D04 YN63",
          "country": "Ireland",
          "geoPoint": {
            "lat": 53.33306,
            "lon": -6.24889
          }
        },
        {
          "facility": "Mercer's Institute for Successful Aging",
          "city": "Dublin",
          "zip": "D08 NHY1",
          "country": "Ireland",
          "geoPoint": {
            "lat": 53.33306,
            "lon": -6.24889
          }
        },
        {
          "facility": "Tallaght University Hospital",
          "city": "Dublin",
          "zip": "D24 NR0A",
          "country": "Ireland",
          "geoPoint": {
            "lat": 53.33306,
            "lon": -6.24889
          }
        },
        {
          "facility": "Rambam MC - The Stroke and Cognition Institute",
          "city": "Haifa",
          "zip": "3109601",
          "country": "Israel",
          "geoPoint": {
            "lat": 32.81303,
            "lon": 34.99928
          }
        },
        {
          "facility": "Rabin MC Beilinson - Cognitive Neurology Clinic",
          "city": "Petah Tikva",
          "zip": "49100",
          "country": "Israel",
          "geoPoint": {
            "lat": 32.08707,
            "lon": 34.88747
          }
        },
        {
          "facility": "Sourasky MC - Cognitive Neurology Department",
          "city": "Tel Aviv",
          "zip": "6423906",
          "country": "Israel",
          "geoPoint": {
            "lat": 32.08088,
            "lon": 34.78057
          }
        },
        {
          "facility": "Sheba MC - Memory Clinic",
          "city": "Tel Hashomer, Ramat Gan",
          "zip": "5262000",
          "country": "Israel"
        },
        {
          "facility": "AOU Ospedali Riuniti S.O.D",
          "city": "Ancona",
          "zip": "60126",
          "country": "Italy",
          "geoPoint": {
            "lat": 43.60717,
            "lon": 13.5103
          }
        },
        {
          "facility": "Azienda Ospedaliera Spedali Civili di Brescia",
          "city": "Brescia",
          "zip": "25123",
          "country": "Italy",
          "geoPoint": {
            "lat": 45.53558,
            "lon": 10.21472
          }
        },
        {
          "facility": "Università degli studi G. D'Annunzio di Chieti - CAST - Neurologia",
          "city": "Chieti",
          "zip": "66100",
          "country": "Italy",
          "geoPoint": {
            "lat": 42.34827,
            "lon": 14.16494
          }
        },
        {
          "facility": "AOU Careggi Firenze",
          "city": "Florence",
          "zip": "50134",
          "country": "Italy",
          "geoPoint": {
            "lat": 43.77925,
            "lon": 11.24626
          }
        },
        {
          "facility": "Fondazione IRCSS Ca' Granda Ospedale Maggiore Policlinico",
          "city": "Milan",
          "zip": "20122",
          "country": "Italy",
          "geoPoint": {
            "lat": 42.78235,
            "lon": 12.59836
          }
        },
        {
          "facility": "IRCCS Ospedale San Raffaele Milano",
          "city": "Milan",
          "zip": "20132",
          "country": "Italy",
          "geoPoint": {
            "lat": 42.78235,
            "lon": 12.59836
          }
        },
        {
          "facility": "ASST Monza e Brianza Ospedale San Gerardo",
          "city": "Monza",
          "zip": "20900",
          "country": "Italy",
          "geoPoint": {
            "lat": 45.58005,
            "lon": 9.27246
          }
        },
        {
          "facility": "Ospedale Santa Maria della Misericordia",
          "city": "Perugia",
          "zip": "06129",
          "country": "Italy",
          "geoPoint": {
            "lat": 43.1122,
            "lon": 12.38878
          }
        },
        {
          "facility": "Azienda Ospedaliero Universitaria Pisana",
          "city": "Pisa",
          "zip": "56126",
          "country": "Italy",
          "geoPoint": {
            "lat": 43.70853,
            "lon": 10.4036
          }
        },
        {
          "facility": "Pol. Uni. Campus Biomedico UOC Neurologia",
          "city": "Roma",
          "zip": "00128",
          "country": "Italy",
          "geoPoint": {
            "lat": 44.99364,
            "lon": 11.10642
          }
        },
        {
          "facility": "Policlinico Tor Vergata",
          "city": "Roma",
          "zip": "00133",
          "country": "Italy",
          "geoPoint": {
            "lat": 44.99364,
            "lon": 11.10642
          }
        },
        {
          "facility": "Fondazione Policlinico Universitario Agostino Gemelli IRCCS - Neuroscienze, Organi di Senso e Torace",
          "city": "Roma",
          "zip": "00168",
          "country": "Italy",
          "geoPoint": {
            "lat": 44.99364,
            "lon": 11.10642
          }
        },
        {
          "facility": "Fondazione Santa Lucia IRCCS",
          "city": "Roma",
          "zip": "00179",
          "country": "Italy",
          "geoPoint": {
            "lat": 44.99364,
            "lon": 11.10642
          }
        },
        {
          "facility": "AOU Città della Salute e della Scienza di Torino",
          "city": "Torino",
          "zip": "10126",
          "country": "Italy",
          "geoPoint": {
            "lat": 44.88856,
            "lon": 11.99138
          }
        },
        {
          "facility": "Iwaki Clinic_Psychosomatic medicine",
          "city": "Anan, Tokushima",
          "zip": "774-0014",
          "country": "Japan"
        },
        {
          "facility": "Yachiyo Hospital_Neurology",
          "city": "Anjo-shi, Aichi",
          "zip": "446-8510",
          "country": "Japan",
          "geoPoint": {
            "lat": 32.51879,
            "lon": 130.62158
          }
        },
        {
          "facility": "Yachiyo Hospital",
          "city": "Anjo-shi, Aichi",
          "zip": "446-8510",
          "country": "Japan",
          "geoPoint": {
            "lat": 32.51879,
            "lon": 130.62158
          }
        },
        {
          "facility": "Abe Clinic",
          "city": "Arakawa-ku,Tokyo",
          "zip": "116-0014",
          "country": "Japan",
          "geoPoint": {
            "lat": 35.6895,
            "lon": 139.69171
          }
        },
        {
          "facility": "Memory Clinic Ochanomizu",
          "city": "Bunkyo-ku, Tokyo",
          "zip": "113-0034",
          "country": "Japan"
        },
        {
          "facility": "Institute of Science Tokyo Hospital_ Neurology",
          "city": "Bunkyo-ku,Tokyo",
          "zip": "113-8519",
          "country": "Japan"
        },
        {
          "facility": "Tokyo Medical And Dental University Hospital",
          "city": "Bunkyo-ku,Tokyo",
          "zip": "113-8519",
          "country": "Japan"
        },
        {
          "facility": "Kashiwado Hospital_Neurology",
          "city": "Chib-shi, Chiba",
          "zip": "260-8656",
          "country": "Japan",
          "geoPoint": {
            "lat": 35.6,
            "lon": 140.11667
          }
        },
        {
          "facility": "Kashiwado Hospital",
          "city": "Chib-shi, Chiba",
          "zip": "260-8656",
          "country": "Japan",
          "geoPoint": {
            "lat": 35.6,
            "lon": 140.11667
          }
        },
        {
          "facility": "Enomoto Internal Medicine Clinic",
          "city": "Chofu-shi,Tokyo",
          "zip": "182-0036",
          "country": "Japan",
          "geoPoint": {
            "lat": 35.6895,
            "lon": 139.69171
          }
        },
        {
          "facility": "Shinozuka Hospital_Neurology",
          "city": "Fujioka-Shi, Gunma",
          "zip": "375-0017",
          "country": "Japan"
        },
        {
          "facility": "P-one Clinic",
          "city": "Hachioji-shi, Tokyo",
          "zip": "192-0071",
          "country": "Japan",
          "geoPoint": {
            "lat": 35.6895,
            "lon": 139.69171
          }
        },
        {
          "facility": "National Hospital Organization Tenryu Hospital",
          "city": "Hamamatsu-shi, Shizuoka",
          "zip": "434-8511",
          "country": "Japan"
        },
        {
          "facility": "Hyogo Prefectural HarimaHimeji General Medical Center_Dept. of Aging Brain&Cognitive",
          "city": "Himeji-shi, Hyogo",
          "zip": "670-8560",
          "country": "Japan",
          "geoPoint": {
            "lat": 43.36667,
            "lon": 144.43333
          }
        },
        {
          "facility": "Tsukazaki Hospital_Department of Neurology",
          "city": "Himeji-shi, Hyogo",
          "zip": "671-1227",
          "country": "Japan",
          "geoPoint": {
            "lat": 43.36667,
            "lon": 144.43333
          }
        },
        {
          "facility": "Himeji Central Hospital Clinic",
          "city": "Himeji-shi, Hyogo",
          "zip": "672-8043",
          "country": "Japan",
          "geoPoint": {
            "lat": 43.36667,
            "lon": 144.43333
          }
        },
        {
          "facility": "Hatsuta Neurology Clinic",
          "city": "Hirakata-Shi,Osaka",
          "zip": "573-1121",
          "country": "Japan",
          "geoPoint": {
            "lat": 34.69379,
            "lon": 135.50107
          }
        },
        {
          "facility": "Imon Yukari Neurology Clinic",
          "city": "Hiroshima-shi, Hiroshima",
          "zip": "732-0066",
          "country": "Japan"
        },
        {
          "facility": "Hikaru-kai Medical Corporation Hiroshima Neurology Clinic",
          "city": "Hiroshima-shi, Hiroshima",
          "zip": "732-0822",
          "country": "Japan"
        },
        {
          "facility": "Nagamitsu Clinic",
          "city": "Hofu-shi, Yamaguchi",
          "zip": "747-0802",
          "country": "Japan",
          "geoPoint": {
            "lat": 34.18333,
            "lon": 131.46667
          }
        },
        {
          "facility": "Ina Central Hospital",
          "city": "Ina-shi, Nagano",
          "zip": "396-8555",
          "country": "Japan",
          "geoPoint": {
            "lat": 36.65,
            "lon": 138.18333
          }
        },
        {
          "facility": "Kawasaki Saiwai Clinic_Internal Medicine",
          "city": "Kanagawa",
          "zip": "212-0016",
          "country": "Japan",
          "geoPoint": {
            "lat": 37.58333,
            "lon": 139.91667
          }
        },
        {
          "facility": "Kishiro Mental Clinic",
          "city": "Kawasaki-shi , Kanagawa",
          "zip": "214-0014",
          "country": "Japan",
          "geoPoint": {
            "lat": 37.58333,
            "lon": 139.91667
          }
        },
        {
          "facility": "Koukan Clinic",
          "city": "Kawasaki-shi, Kanagawa",
          "zip": "210-0852",
          "country": "Japan",
          "geoPoint": {
            "lat": 37.58333,
            "lon": 139.91667
          }
        },
        {
          "facility": "Teikyo University Hospital, Mizonokuchi_Kawasaki-shi, Kanagawa",
          "city": "Kawasaki-shi, Kanagawa",
          "zip": "213-8507",
          "country": "Japan",
          "geoPoint": {
            "lat": 37.58333,
            "lon": 139.91667
          }
        },
        {
          "facility": "Kobe University Hospital_",
          "city": "Kobe-shi, Hyogo",
          "zip": "650-0017",
          "country": "Japan"
        },
        {
          "facility": "Kobe University Hospital",
          "city": "Kobe-shi, Hyogo",
          "zip": "650-0017",
          "country": "Japan"
        },
        {
          "facility": "National Center of Neurology and Psychiatry_Neurology",
          "city": "Kodaira-shi, Tokyo",
          "zip": "187-8551",
          "country": "Japan",
          "geoPoint": {
            "lat": 35.6895,
            "lon": 139.69171
          }
        },
        {
          "facility": "Southern Tohoku Medical Clinic",
          "city": "Koriyama-shi, Fukushima",
          "zip": "963-8052",
          "country": "Japan",
          "geoPoint": {
            "lat": 37.75,
            "lon": 140.46667
          }
        },
        {
          "facility": "Katayama Medical Clinic",
          "city": "Kurashiki-shi, Okayama",
          "zip": "710-0813",
          "country": "Japan",
          "geoPoint": {
            "lat": 34.65,
            "lon": 133.93333
          }
        },
        {
          "facility": "Nozomi Memory Clinic",
          "city": "Mitaka-shi,Tokyo",
          "zip": "181-0013",
          "country": "Japan",
          "geoPoint": {
            "lat": 35.6895,
            "lon": 139.69171
          }
        },
        {
          "facility": "Kikukawa clinic",
          "city": "Nerima-ku, Tokyo",
          "zip": "179-0072",
          "country": "Japan",
          "geoPoint": {
            "lat": 35.6895,
            "lon": 139.69171
          }
        },
        {
          "facility": "General Rehabilitation Center Midori Hospital_Neurology",
          "city": "Niigata-shi, Niigata",
          "zip": "950-0983",
          "country": "Japan"
        },
        {
          "facility": "General Rehabilitation Center · Midori Hospital",
          "city": "Niigata-shi, Niigata",
          "zip": "950-0983",
          "country": "Japan"
        },
        {
          "facility": "National Center for Geriatrics and Gerontology_Comprehensive care",
          "city": "Obu-shi, Aichi",
          "zip": "474-8511",
          "country": "Japan",
          "geoPoint": {
            "lat": 32.51879,
            "lon": 130.62158
          }
        },
        {
          "facility": "OKAYAMA KYOKUTO HOSPITAL_Radiology",
          "city": "Okayama-shi, Okayama",
          "zip": "703-8265",
          "country": "Japan"
        },
        {
          "facility": "Jichiidai Station Brain Clinic",
          "city": "Shimotsuke-shi, Tochigi",
          "zip": "329-0403",
          "country": "Japan",
          "geoPoint": {
            "lat": 36.38333,
            "lon": 139.73333
          }
        },
        {
          "facility": "Jichiidai Station Brain Clinic",
          "city": "Shimotsuke-shi, Tochigi",
          "country": "Japan",
          "geoPoint": {
            "lat": 36.38333,
            "lon": 139.73333
          }
        },
        {
          "facility": "Alzclinic Pet Lab",
          "city": "Shinjuku-ku, Tokyo",
          "zip": "160-0017",
          "country": "Japan",
          "geoPoint": {
            "lat": 35.6895,
            "lon": 139.69171
          }
        },
        {
          "facility": "Keio University Hospital",
          "city": "Shinjuku-ku, Tokyo",
          "zip": "160-8582",
          "country": "Japan",
          "geoPoint": {
            "lat": 35.6895,
            "lon": 139.69171
          }
        },
        {
          "facility": "Shizuoka City Shimizu Hospital_Neurology",
          "city": "Shizuoka-shi, Shizuoka",
          "zip": "424-8636",
          "country": "Japan"
        },
        {
          "facility": "Kagawa Prefectural Central Hospital_Takamatsu-shi, Kagawa",
          "city": "Takamatsu-shi, Kagawa",
          "zip": "760-8557",
          "country": "Japan"
        },
        {
          "facility": "Takatsuki General Hospital_Neurology",
          "city": "Takatsuki-Shi, Osaka",
          "zip": "569-1192",
          "country": "Japan",
          "geoPoint": {
            "lat": 34.69379,
            "lon": 135.50107
          }
        },
        {
          "facility": "Saino Clinic",
          "city": "Tokorozawa-shi,Saitama",
          "zip": "359-1141",
          "country": "Japan",
          "geoPoint": {
            "lat": 35.90807,
            "lon": 139.65657
          }
        },
        {
          "facility": "Itsuki Hospital_Neurology",
          "city": "Tokushima-shi, Tokushima",
          "zip": "770-0852",
          "country": "Japan"
        },
        {
          "facility": "Alzclinic Tokyo",
          "city": "Tokyo",
          "zip": "100-0005",
          "country": "Japan",
          "geoPoint": {
            "lat": 35.6895,
            "lon": 139.69171
          }
        },
        {
          "facility": "Tokyo Center Clinic",
          "city": "Tokyo",
          "zip": "103-0028",
          "country": "Japan",
          "geoPoint": {
            "lat": 35.6895,
            "lon": 139.69171
          }
        },
        {
          "facility": "Juntendo Tokyo Koto Geriatric Medical Center_psychiatry",
          "city": "Tokyo",
          "zip": "136-0075",
          "country": "Japan",
          "geoPoint": {
            "lat": 35.6895,
            "lon": 139.69171
          }
        },
        {
          "facility": "Kurumi CLINIC",
          "city": "Tokyo",
          "zip": "156-0041",
          "country": "Japan",
          "geoPoint": {
            "lat": 35.6895,
            "lon": 139.69171
          }
        },
        {
          "facility": "Tokyo Medical Univ. Hospital",
          "city": "Tokyo",
          "zip": "160-0023",
          "country": "Japan",
          "geoPoint": {
            "lat": 35.6895,
            "lon": 139.69171
          }
        },